$GPGSA,A,1,,,,,,,,,,,,,,,*1E
$GNGSA,A,1,,,,,,,,,,,,,,,*00
$GPVTG,,T,,M,,N,,K,N*2C
$GPRMC,,V,,,,,,,,,,N*53
$GPGGA,,,,,,0,,,,,,,,*66
$GPGSV,1,1,04,16,64,025,27,21,17,066,32,23,49,253,36,26,40,057,33*71
$GLGSV,1,1,03,82,36,042,35,73,59,001,28,83,54,125,26*52
$GAGSV,1,1,0,*74
$GPGSA,A,1,,,,,,,,,,,,,,,*1E
$GNGSA,A,1,,,,,,,,,,,,,,,*00
$GPVTG,,T,,M,,N,,K,N*2C
$GPRMC,,V,,,,,,,,,,N*53
$GPGGA,,,,,,0,,,,,,,,*66
$GPGSV,1,1,04,16,64,025,25,21,17,066,34,23,49,253,37,26,40,057,30*77
$GLGSV,1,1,03,82,36,042,35,73,59,001,28,83,54,125,26*52
$GAGSV,1,1,0,*74
$GPGSA,A,1,,,,,,,,,,,,,,,*1E
$GNGSA,A,1,,,,,,,,,,,,,,,*00
$GPVTG,,T,,M,,N,,K,N*2C
$GPRMC,,V,,,,,,,,,,N*53
$GPGGA,,,,,,0,,,,,,,,*66
$GPGSV,1,1,04,16,64,025,27,21,17,066,32,23,49,253,35,26,40,057,30*71
$GLGSV,1,1,03,82,36,042,31,73,59,001,25,83,54,125,37*5B
$GAGSV,1,1,0,*74
$GPGSA,A,1,,,,,,,,,,,,,,,*1E
$GNGSA,A,1,,,,,,,,,,,,,,,*00
$GPVTG,,T,,M,,N,,K,N*2C
$GPRMC,,V,,,,,,,,,,N*53
$GPGGA,,,,,,0,,,,,,,,*66
$GPGSV,2,1,06,16,64,025,29,21,17,066,30,23,49,253,35,26,40,057,29*74
$GPGSV,2,2,06,27,68,164,36,31,16,118,30*7C
$GLGSV,1,1,03,82,36,042,31,73,59,001,25,83,54,125,36*5A
$GAGSV,1,1,0,*74
$GPGSA,A,1,,,,,,,,,,,,,,,*1E
$GNGSA,A,1,,,,,,,,,,,,,,,*00
$GPVTG,,T,,M,,N,,K,N*2C
$GPRMC,,V,,,,,,,,,,N*53
$GPGGA,,,,,,0,,,,,,,,*66
$GPGSV,2,1,08,04,00,000,24,09,35,296,22,16,64,025,30,21,17,066,27*73
$GPGSV,2,2,08,23,49,253,36,26,40,057,29,27,68,164,35,31,16,118,26*72
$GLGSV,1,1,03,82,36,042,26,73,59,001,23,83,54,125,37*5B
$GAGSV,1,1,0,*74
$GPGSA,A,1,,,,,,,,,,,,,,,*1E
$GNGSA,A,1,,,,,,,,,,,,,,,*00
$GPVTG,,T,,M,,N,,K,N*2C
$GPRMC,,V,,,,,,,,,,N*53
$GPGGA,,,,,,0,,,,,,,,*66
$GPGSV,3,1,09,04,00,000,24,08,35,199,22,09,35,296,22,16,64,025,30*7C
$GPGSV,3,2,09,21,17,066,28,23,49,253,36,26,40,057,27,27,68,164,34*7B
$GPGSV,3,3,09,31,16,118,25*4A
$GLGSV,1,1,04,82,36,042,25,73,59,001,24,83,54,125,38,72,20,305,24*60
$GAGSV,1,1,0,*74
$GPGSA,A,1,,,,,,,,,,,,,,,*1E
$GNGSA,A,1,,,,,,,,,,,,,,,*00
$GPVTG,,T,,M,,N,,K,N*2C
$GPRMC,,V,,,,,,,,,,N*53
$GPGGA,,,,,,0,,,,,,,,*66
$GPGSV,3,1,09,04,00,000,24,08,35,199,22,09,35,296,22,16,64,025,29*74
$GPGSV,3,2,09,21,17,066,28,23,49,253,36,26,40,057,27,27,68,164,34*7B
$GPGSV,3,3,09,31,16,118,24*4B
$GLGSV,1,1,04,82,36,042,26,73,59,001,24,83,54,125,37,72,20,305,24*6C
$GAGSV,1,1,0,*74
$GPGSA,A,1,,,,,,,,,,,,,,,*1E
$GNGSA,A,1,,,,,,,,,,,,,,,*00
$GPVTG,,T,,M,,N,,K,N*2C
$GPRMC,,V,,,,,,,,,,N*53
$GPGGA,,,,,,0,,,,,,,,*66
$GPGSV,3,1,09,04,00,000,24,08,35,199,22,09,35,296,26,16,64,025,29*70
$GPGSV,3,2,09,21,17,066,29,23,49,253,36,26,40,057,28,27,68,164,34*75
$GPGSV,3,3,09,31,16,118,24*4B
$GLGSV,1,1,04,82,36,042,26,73,59,001,24,83,54,125,37,72,20,305,24*6C
$GAGSV,1,1,0,*74
$GPGSA,A,1,,,,,,,,,,,,,,,*1E
$GNGSA,A,1,,,,,,,,,,,,,,,*00
$GPVTG,,T,,M,,N,,K,N*2C
$GPRMC,,V,,,,,,,,,,N*53
$GPGGA,,,,,,0,,,,,,,,*66
$GPGSV,3,1,09,04,00,000,24,08,35,199,24,09,35,296,26,16,64,025,30*7E
$GPGSV,3,2,09,21,17,066,28,23,49,253,36,26,40,057,28,27,68,164,34*74
$GPGSV,3,3,09,31,16,118,25*4A
$GLGSV,1,1,04,82,36,042,28,73,59,001,23,83,54,125,37,72,20,305,24*65
$GAGSV,1,1,0,*74
$GPGSA,A,1,,,,,,,,,,,,,,,*1E
$GNGSA,A,1,,,,,,,,,,,,,,,*00
$GPVTG,,T,,M,,N,,K,N*2C
$GPRMC,,V,,,,,,,,,,N*53
$GPGGA,,,,,,0,,,,,,,,*66
$GPGSV,3,1,09,04,00,000,24,08,35,199,23,09,35,296,27,16,64,025,29*70
$GPGSV,3,2,09,21,17,066,28,23,49,253,36,26,40,057,28,27,68,164,34*74
$GPGSV,3,3,09,31,16,118,26*49
$GLGSV,1,1,04,82,36,042,29,73,59,001,24,83,54,125,37,72,20,305,24*63
$GAGSV,1,1,0,*74
$GNGSA,A,3,08,09,16,21,23,26,27,31,,,,,2.1,1.1,1.8*21
$GNGSA,A,2,73,82,83,,,,,,,,,,2.1,1.1,1.8*22
$GNVTG,,T,,M,0.0,N,0.0,K,A*3D
$GNRMC,022619.24,A,4001.679027,N,11619.839993,E,0.0,,120617,,,A*62
$GNGGA,022619.24,4001.679027,N,11619.839993,E,1,11,1.1,56.3,M,-8.4,M,,*5C
$GPGSA,A,1,,,,,,,,,,,,,2.1,1.1,1.8*3A
$GPVTG,,T,,M,0.0,N,0.0,K,A*23
$GPRMC,022621.03,A,4001.679159,N,11619.840007,E,0.0,,120617,5.8,W,A*04
$GPGGA,022621.03,4001.679159,N,11619.840007,E,1,00,1.1,56.2,M,-8.4,M,,*4F
$GPGSV,3,1,10,04,00,000,24,07,14,305,23,08,35,199,23,09,35,295,26*76
$GPGSV,3,2,10,16,64,025,29,21,17,066,28,23,49,253,36,26,40,057,27*75
$GPGSV,3,3,10,27,68,164,34,31,16,118,24*7C
$GLGSV,1,1,04,82,36,042,29,73,59,001,24,83,54,125,36,72,20,305,21*67
$GAGSV,1,1,0,*74
$GNGSA,A,3,07,08,09,16,21,23,26,27,31,,,,1.1,0.8,0.8*2C
$GNGSA,A,2,73,82,83,,,,,,,,,,1.1,0.8,0.8*28
$GNVTG,,T,,M,0.0,N,0.0,K,A*3D
$GNRMC,022622.00,A,4001.678025,N,11619.835369,E,0.0,,120617,5.8,W,A*18
$GNGGA,022622.00,4001.678025,N,11619.835369,E,1,12,0.8,43.7,M,-8.4,M,,*59
$GPGSV,3,1,10,04,00,000,24,07,14,305,22,08,35,199,22,09,35,295,25*75
$GPGSV,3,2,10,16,64,025,29,21,17,066,28,23,49,253,36,26,40,057,27*75
$GPGSV,3,3,10,27,68,164,33,31,16,118,26*79
$GLGSV,1,1,04,82,36,042,29,73,59,001,23,83,54,125,36,72,20,305,22*63
$GAGSV,1,1,0,*74
$GNGSA,A,3,07,08,09,16,21,23,26,27,31,,,,1.1,0.8,0.8*2C
$GNGSA,A,3,72,73,82,83,,,,,,,,,1.1,0.8,0.8*2C
$GNVTG,,T,,M,0.0,N,0.0,K,A*3D
$GNRMC,022623.00,A,4001.682032,N,11619.836077,E,0.0,,120617,5.8,W,A*15
$GNGGA,022623.00,4001.682032,N,11619.836077,E,1,12,0.8,58.9,M,-8.4,M,,*50
$GPGSV,3,1,10,04,00,000,24,07,14,305,21,08,35,199,23,09,35,295,24*76
$GPGSV,3,2,10,16,64,025,30,21,17,066,29,23,49,253,36,26,40,057,27*7C
$GPGSV,3,3,10,27,68,164,34,31,16,118,26*7E
$GLGSV,1,1,04,82,36,042,29,73,59,001,23,83,54,125,36,72,20,305,22*63
$GAGSV,1,1,0,*74
$GNGSA,A,3,07,08,09,16,21,23,26,27,31,,,,1.1,0.8,0.8*2C
$GNGSA,A,3,72,73,82,83,,,,,,,,,1.1,0.8,0.8*2C
$GNVTG,,T,,M,0.0,N,0.0,K,A*3D
$GNRMC,022624.00,A,4001.682276,N,11619.837693,E,0.0,,120617,5.8,W,A*1D
$GNGGA,022624.00,4001.682276,N,11619.837693,E,1,12,0.8,57.5,M,-8.4,M,,*5B
$GPGSV,3,1,10,04,00,000,30,07,14,305,22,08,35,199,22,09,35,295,24*71
$GPGSV,3,2,10,16,64,025,31,21,17,066,25,23,49,253,34,26,40,057,29*7D
$GPGSV,3,3,10,27,68,164,35,31,16,118,31*79
$GLGSV,1,1,04,82,36,042,31,73,59,001,26,83,54,125,34,72,20,305,23*6C
$GAGSV,1,1,0,*74
$GNGSA,A,3,07,08,09,16,21,23,26,27,31,,,,1.1,0.8,0.8*2C
$GNGSA,A,3,72,73,82,83,,,,,,,,,1.1,0.8,0.8*2C
$GNVTG,78.8,T,78.8,M,0.9,N,1.7,K,A*32
$GNRMC,022624.00,A,4001.684406,N,11619.837061,E,0.9,78.8,120617,5.8,W,A*01
$GNGGA,022624.00,4001.684406,N,11619.837061,E,1,12,0.8,65.5,M,-8.4,M,,*56
$GPGSV,3,1,10,04,00,000,31,07,14,305,20,08,35,199,24,09,35,295,22*72
$GPGSV,3,2,10,16,64,025,31,21,17,066,26,23,49,253,34,26,40,057,31*77
$GPGSV,3,3,10,27,68,164,36,31,16,118,32*79
$GLGSV,2,1,07,74,17,302,21,82,36,042,26,73,59,001,28,80,36,080,29*66
$GLGSV,2,2,07,84,14,177,24,83,54,125,30,72,20,305,19*5A
$GAGSV,1,1,0,*74
$GNGSA,A,3,07,08,09,16,21,23,26,27,31,,,,1.0,0.7,0.7*2D
$GNGSA,A,3,72,73,74,80,82,83,84,,,,,,1.0,0.7,0.7*2A
$GNVTG,117.1,T,117.1,M,1.5,N,2.8,K,A*33
$GNRMC,022625.00,A,4001.684144,N,11619.836232,E,1.5,117.1,120617,5.8,W,A*3A
$GNGGA,022625.00,4001.684144,N,11619.836232,E,1,12,0.7,62.9,M,-8.4,M,,*55
$GPGSV,3,1,10,04,00,000,34,07,14,305,17,08,35,199,29,09,35,295,25*79
$GPGSV,3,2,10,16,64,025,32,21,17,066,23,23,49,253,34,26,40,057,26*77
$GPGSV,3,3,10,27,68,164,32,31,16,118,32*7D
$GLGSV,2,1,07,74,17,302,19,82,36,042,31,73,59,001,30,80,36,080,23*68
$GLGSV,2,2,07,84,14,177,22,83,54,125,29,72,20,305,20*5E
$GAGSV,1,1,0,*74
$GNGSA,A,3,07,08,09,16,21,23,26,27,31,,,,1.0,0.6,0.7*2C
$GNGSA,A,3,72,73,74,80,82,83,84,,,,,,1.0,0.6,0.7*2B
$GNVTG,158.3,T,158.3,M,2.5,N,4.6,K,A*38
$GNRMC,022626.00,A,4001.684996,N,11619.835656,E,2.5,158.3,120617,5.8,W,A*31
$GNGGA,022626.00,4001.684996,N,11619.835656,E,1,12,0.6,62.4,M,-8.4,M,,*58
$GPGSV,3,1,10,04,00,000,30,07,14,305,21,08,35,199,30,09,35,295,22*77
$GPGSV,3,2,10,16,64,025,32,21,17,066,27,23,49,253,27,26,40,057,26*71
$GPGSV,3,3,10,27,68,164,34,31,16,118,31*78
$GLGSV,2,1,07,74,17,302,19,82,36,042,31,73,59,001,30,80,36,080,19*61
$GLGSV,2,2,07,84,14,177,22,83,54,125,32,72,20,305,20*54
$GAGSV,1,1,0,*74
$GNGSA,A,3,07,08,09,16,21,23,26,27,31,,,,1.0,0.6,0.7*2C
$GNGSA,A,3,72,73,74,80,82,83,84,,,,,,1.0,0.6,0.7*2B
$GNVTG,147.7,T,147.7,M,2.9,N,5.4,K,A*37
$GNRMC,022627.00,A,4001.685056,N,11619.835439,E,2.9,147.7,120617,5.8,W,A*39
$GNGGA,022627.00,4001.685056,N,11619.835439,E,1,12,0.6,56.0,M,-8.4,M,,*55
$GPGSV,3,1,10,04,00,000,33,07,14,305,21,08,35,199,33,09,35,295,24*71
$GPGSV,3,2,10,16,64,025,34,21,17,066,24,23,49,253,27,26,40,057,28*7A
$GPGSV,3,3,10,27,68,164,37,31,16,118,36*7C
$GLGSV,2,1,07,74,17,302,20,82,36,042,30,73,59,001,31,80,36,080,24*65
$GLGSV,2,2,07,84,14,177,25,83,54,125,30,72,20,305,21*50
$GAGSV,1,1,0,*74
$GNGSA,A,3,07,08,09,16,21,23,26,27,31,,,,1.0,0.6,0.7*2C
$GNGSA,A,3,72,73,74,80,82,83,84,,,,,,1.0,0.6,0.7*2B
$GNVTG,152.3,T,152.3,M,2.7,N,5.1,K,A*3C
$GNRMC,022628.00,A,4001.684318,N,11619.835942,E,2.7,152.3,120617,5.8,W,A*31
$GNGGA,022628.00,4001.684318,N,11619.835942,E,1,12,0.6,54.3,M,-8.4,M,,*52
$GPGSV,3,1,10,04,00,000,31,07,14,305,19,08,35,199,37,09,35,295,24*7C
$GPGSV,3,2,10,16,64,025,31,21,17,066,25,23,49,253,23,26,40,057,24*76
$GPGSV,3,3,10,27,68,164,38,31,16,118,35*70
$GLGSV,2,1,08,74,17,302,19,82,36,042,29,73,59,001,32,80,36,080,22*6D
$GLGSV,2,2,08,84,14,177,19,83,54,125,27,71,19,251,14,72,20,305,19*60
$GAGSV,1,1,0,*74
$GNGSA,A,3,07,08,09,16,21,23,26,27,31,,,,1.0,0.6,0.7*2C
$GNGSA,A,3,71,72,73,74,80,82,83,84,,,,,1.0,0.6,0.7*2D
$GNVTG,152.4,T,152.4,M,1.0,N,1.8,K,A*35
$GNRMC,022629.00,A,4001.683760,N,11619.836133,E,1.0,152.4,120617,5.8,W,A*32
$GNGGA,022629.00,4001.683760,N,11619.836133,E,1,12,0.6,54.3,M,-8.4,M,,*52
$GPGSV,3,1,10,04,00,000,32,07,14,305,21,08,35,199,35,09,35,295,24*76
$GPGSV,3,2,10,16,64,025,33,21,17,066,27,23,49,253,21,26,40,057,26*76
$GPGSV,3,3,10,27,68,164,35,31,16,118,32*7A
$GLGSV,2,1,08,74,17,302,19,82,36,042,28,73,59,001,31,80,36,080,24*69
$GLGSV,2,2,08,84,14,177,22,83,54,125,28,71,19,251,13,72,20,305,16*6F
$GAGSV,1,1,0,*74
$GNGSA,A,3,07,08,09,16,21,23,26,27,31,,,,1.0,0.6,0.7*2C
$GNGSA,A,3,71,72,73,74,80,82,83,84,,,,,1.0,0.6,0.7*2D
$GNVTG,152.4,T,152.4,M,1.0,N,1.9,K,A*34
$GNRMC,022630.00,A,4001.683268,N,11619.836431,E,1.0,152.4,120617,5.8,W,A*30
$GNGGA,022630.00,4001.683268,N,11619.836431,E,1,12,0.6,54.6,M,-8.4,M,,*55
$GPGSV,3,1,10,04,00,000,34,07,14,305,21,08,35,199,35,09,35,295,22*76
$GPGSV,3,2,10,16,64,025,31,21,17,066,25,23,49,253,20,26,40,057,31*71
$GPGSV,3,3,10,27,68,164,35,31,16,118,32*7A
$GLGSV,2,1,08,74,17,302,21,82,36,042,23,73,59,001,32,80,36,080,24*6A
$GLGSV,2,2,08,84,14,177,26,83,54,125,29,71,19,251,14,72,20,305,20*68
$GAGSV,1,1,0,*74
$GNGSA,A,3,07,08,09,16,21,23,26,27,31,,,,0.9,0.6,0.7*24
$GNGSA,A,3,71,72,73,74,80,82,83,84,,,,,0.9,0.6,0.7*25
$GNVTG,136.6,T,136.6,M,1.0,N,1.9,K,A*34
$GNRMC,022631.00,A,4001.683069,N,11619.836736,E,1.0,136.6,120617,5.8,W,A*36
$GNGGA,022631.00,4001.683069,N,11619.836736,E,1,12,0.6,55.5,M,-8.4,M,,*51
$GPGSV,3,1,10,04,00,000,33,07,14,305,18,08,35,199,33,09,35,295,22*7D
$GPGSV,3,2,10,16,64,025,32,21,17,066,27,23,49,253,24,26,40,057,31*74
$GPGSV,3,3,10,27,68,164,36,31,16,118,30*7B
$GLGSV,2,1,08,74,17,302,17,82,36,042,26,73,59,001,27,80,36,080,24*6E
$GLGSV,2,2,08,84,14,177,24,83,54,125,29,71,19,251,13,72,20,305,24*69
$GAGSV,1,1,0,*74
$GNGSA,A,3,07,08,09,16,21,23,26,27,31,,,,0.9,0.6,0.7*24
$GNGSA,A,3,71,72,73,74,80,82,83,84,,,,,0.9,0.6,0.7*25
$GNVTG,143.4,T,143.4,M,1.0,N,1.9,K,A*34
$GNRMC,022632.00,A,4001.682801,N,11619.837066,E,1.0,143.4,120617,5.8,W,A*31
$GNGGA,022632.00,4001.682801,N,11619.837066,E,1,12,0.6,55.6,M,-8.4,M,,*55
$GPGSV,3,1,10,04,00,000,33,07,14,305,16,08,35,199,32,09,35,295,21*71
$GPGSV,3,2,10,16,64,025,31,21,17,066,25,23,49,253,19,26,40,057,32*78
$GPGSV,3,3,10,27,68,164,36,31,16,118,31*7A
$GLGSV,2,1,08,74,17,302,20,82,36,042,29,73,59,001,30,80,36,080,23*64
$GLGSV,2,2,08,84,14,177,24,83,54,125,28,71,19,251,13,72,20,305,25*69
$GAGSV,1,1,0,*74
$GNGSA,A,3,07,08,09,16,21,23,26,27,31,,,,0.9,0.6,0.7*24
$GNGSA,A,3,71,72,73,74,80,82,83,84,,,,,0.9,0.6,0.7*25
$GNVTG,136.8,T,136.8,M,1.1,N,2.1,K,A*3E
$GNRMC,022633.00,A,4001.682566,N,11619.837497,E,1.1,136.8,120617,5.8,W,A*39
$GNGGA,022633.00,4001.682566,N,11619.837497,E,1,12,0.6,55.4,M,-8.4,M,,*50
$GPGSV,3,1,10,04,00,000,32,07,14,305,18,08,35,199,32,09,35,295,19*75
$GPGSV,3,2,10,16,64,025,32,21,17,066,25,23,49,253,16,26,40,057,32*74
$GPGSV,3,3,10,27,68,164,35,31,16,118,31*79
$GLGSV,2,1,08,74,17,302,23,82,36,042,27,73,59,001,29,80,36,080,22*60
$GLGSV,2,2,08,84,14,177,23,83,54,125,30,71,19,251,13,72,20,305,23*61
$GAGSV,1,1,0,*74
$GNGSA,A,3,07,08,09,16,21,23,26,27,31,,,,0.9,0.6,0.7*24
$GNGSA,A,3,71,72,73,74,80,82,83,84,,,,,0.9,0.6,0.7*25
$GNVTG,138.0,T,138.0,M,1.4,N,2.5,K,A*3F
$GNRMC,022634.00,A,4001.682392,N,11619.838041,E,1.4,138.0,120617,5.8,W,A*30
$GNGGA,022634.00,4001.682392,N,11619.838041,E,1,12,0.6,55.5,M,-8.4,M,,*5B
$GPGSV,3,1,10,04,00,000,34,07,14,305,18,08,35,199,33,09,35,295,23*7B
$GPGSV,3,2,10,16,64,025,32,21,17,066,26,23,49,253,18,26,40,057,32*79
$GPGSV,3,3,10,27,68,164,36,31,16,118,30*7B
$GLGSV,2,1,08,74,17,302,17,82,36,042,29,73,59,001,31,80,36,080,25*67
$GLGSV,2,2,08,84,14,177,19,83,54,125,31,71,19,251,14,72,20,305,20*6D
$GAGSV,1,1,0,*74
$GNGSA,A,3,07,08,09,16,21,23,26,27,31,,,,0.9,0.6,0.7*24
$GNGSA,A,3,71,72,73,74,80,82,83,84,,,,,0.9,0.6,0.7*25
$GNVTG,139.2,T,139.2,M,1.6,N,3.0,K,A*39
$GNRMC,022635.00,A,4001.682032,N,11619.838608,E,1.6,139.2,120617,5.8,W,A*32
$GNGGA,022635.00,4001.682032,N,11619.838608,E,1,12,0.6,55.4,M,-8.4,M,,*59
$GPGSV,3,1,10,04,00,000,34,07,14,305,17,08,35,199,32,09,35,295,21*77
$GPGSV,3,2,10,16,64,025,32,21,17,066,27,23,49,253,22,26,40,057,33*70
$GPGSV,3,3,10,27,68,164,35,31,16,118,28*71
$GLGSV,2,1,08,74,17,302,17,82,36,042,30,73,59,001,31,80,36,080,23*69
$GLGSV,2,2,08,84,14,177,19,83,54,125,29,71,19,251,15,72,20,305,20*65
$GAGSV,1,1,0,*74
$GNGSA,A,3,07,08,09,16,21,23,26,27,31,,,,0.9,0.6,0.7*24
$GNGSA,A,3,71,72,73,74,80,82,83,84,,,,,0.9,0.6,0.7*25
$GNVTG,136.2,T,136.2,M,1.8,N,3.4,K,A*33
$GNRMC,022636.00,A,4001.681603,N,11619.839270,E,1.8,136.2,120617,5.8,W,A*3D
$GNGGA,022636.00,4001.681603,N,11619.839270,E,1,12,0.6,55.3,M,-8.4,M,,*50
$GPGSV,3,1,10,04,00,000,34,07,14,305,17,08,35,199,33,09,35,295,27*70
$GPGSV,3,2,10,16,64,025,33,21,17,066,26,23,49,253,18,26,40,057,32*78
$GPGSV,3,3,10,27,68,164,35,31,16,118,27*7E
$GLGSV,2,1,08,74,17,302,17,82,36,042,30,73,59,001,31,80,36,080,25*6F
$GLGSV,2,2,08,84,14,177,17,83,54,125,31,71,19,251,15,72,20,305,14*65
$GAGSV,1,1,0,*74
$GNGSA,A,3,07,08,09,16,21,23,26,27,31,,,,0.9,0.6,0.7*24
$GNGSA,A,3,71,72,73,74,80,82,83,84,,,,,0.9,0.6,0.7*25
$GNVTG,132.0,T,132.0,M,1.9,N,3.6,K,A*30
$GNRMC,022637.00,A,4001.681203,N,11619.840008,E,1.9,132.0,120617,5.8,W,A*3C
$GNGGA,022637.00,4001.681203,N,11619.840008,E,1,12,0.6,55.0,M,-8.4,M,,*55
$GPGSV,3,1,10,04,00,000,34,07,14,305,17,08,35,199,35,09,35,295,23*72
$GPGSV,3,2,10,16,64,025,32,21,17,066,27,23,49,253,19,26,40,057,30*7B
$GPGSV,3,3,10,27,68,164,37,31,16,118,28*73
$GLGSV,2,1,08,74,17,302,16,82,36,042,30,73,59,001,33,80,36,080,28*61
$GLGSV,2,2,08,84,14,177,17,83,54,125,29,71,19,251,15,72,20,305,14*6C
$GAGSV,1,1,0,*74
$GNGSA,A,3,07,08,09,16,21,23,26,27,31,,,,0.9,0.6,0.7*24
$GNGSA,A,3,71,72,73,74,80,82,83,84,,,,,0.9,0.6,0.7*25
$GNVTG,129.5,T,129.5,M,2.1,N,3.9,K,A*34
$GNRMC,022638.00,A,4001.680803,N,11619.840771,E,2.1,129.5,120617,5.8,W,A*35
$GNGGA,022638.00,4001.680803,N,11619.840771,E,1,12,0.6,53.5,M,-8.4,M,,*5B
$GPGSV,3,1,09,04,00,000,34,08,35,199,28,09,35,295,24,16,64,025,33*71
$GPGSV,3,2,09,21,17,066,23,23,49,253,18,26,40,057,33,27,68,164,35*78
$GPGSV,3,3,09,31,16,118,25*4A
$GLGSV,2,1,08,74,17,302,16,82,36,042,31,73,59,001,29,80,36,080,21*62
$GLGSV,2,2,08,84,14,177,13,83,54,125,28,71,19,251,15,72,20,305,17*6A
$GAGSV,1,1,0,*74
$GNGSA,A,3,08,09,16,21,23,26,27,31,,,,,0.9,0.6,0.7*23
$GNGSA,A,3,71,72,73,74,80,82,83,84,,,,,0.9,0.6,0.7*25
$GNVTG,139.7,T,139.7,M,2.2,N,4.1,K,A*38
$GNRMC,022639.00,A,4001.680341,N,11619.841450,E,2.2,139.7,120617,5.8,W,A*38
$GNGGA,022639.00,4001.680341,N,11619.841450,E,1,12,0.6,53.0,M,-8.4,M,,*53
$GPGSV,3,1,09,04,00,000,35,08,35,199,29,09,35,295,22,16,64,025,29*7C
$GPGSV,3,2,09,21,17,066,30,23,49,253,18,26,40,057,26,27,68,164,36*7D
$GPGSV,3,3,09,31,16,118,25*4A
$GLGSV,2,1,08,74,17,302,13,82,36,042,32,73,59,001,33,80,36,080,26*68
$GLGSV,2,2,08,84,14,177,16,83,54,125,32,71,19,251,15,72,20,305,18*6B
$GAGSV,1,1,03,02,42,077,31,22,42,137,32,30,65,334,27*5E
$GNGSA,A,3,08,09,16,21,23,26,27,31,,,,,0.9,0.6,0.7*23
$GNGSA,A,3,71,72,73,74,80,82,83,84,,,,,0.9,0.6,0.7*25
$GNGSA,A,2,02,22,30,,,,,,,,,,0.9,0.6,0.7*24
$GNVTG,147.6,T,147.6,M,2.3,N,4.2,K,A*3A
$GNRMC,022640.00,A,4001.679787,N,11619.842043,E,2.3,147.6,120617,5.8,W,A*32
$GNGGA,022640.00,4001.679787,N,11619.842043,E,1,12,0.6,52.8,M,-8.4,M,,*59
$GPGSV,3,1,09,04,00,000,32,08,35,199,27,09,35,295,21,16,64,025,32*7C
$GPGSV,3,2,09,21,17,066,29,23,49,253,15,26,40,057,30,27,68,164,36*7F
$GPGSV,3,3,09,31,16,118,24*4B
$GLGSV,2,1,08,74,17,302,13,82,36,042,30,73,59,001,30,80,36,080,25*6A
$GLGSV,2,2,08,84,14,177,18,83,54,125,31,71,19,251,23,72,20,305,18*63
$GAGSV,1,1,03,02,42,077,31,22,42,137,33,30,65,334,29*51
$GNGSA,A,3,08,09,16,21,23,26,27,31,,,,,0.9,0.6,0.7*23
$GNGSA,A,3,71,72,73,74,80,82,83,84,,,,,0.9,0.6,0.7*25
$GNGSA,A,2,02,22,30,,,,,,,,,,0.9,0.6,0.7*24
$GNVTG,150.5,T,150.5,M,2.3,N,4.3,K,A*3B
$GNRMC,022641.00,A,4001.679276,N,11619.842577,E,2.3,150.5,120617,5.8,W,A*3F
$GNGGA,022641.00,4001.679276,N,11619.842577,E,1,12,0.6,51.1,M,-8.4,M,,*5B
$GPGSV,3,1,09,04,00,000,33,08,35,199,26,09,35,295,22,16,64,025,32*7F
$GPGSV,3,2,09,21,17,066,26,23,49,253,18,26,40,057,31,27,68,164,35*7F
$GPGSV,3,3,09,31,16,118,25*4A
$GLGSV,2,1,08,74,17,302,13,82,36,042,30,73,59,001,31,80,36,080,23*6D
$GLGSV,2,2,08,84,14,177,16,83,54,125,31,71,19,251,23,72,20,305,13*66
$GAGSV,1,1,03,02,42,077,31,22,42,137,31,30,65,334,29*53
$GNGSA,A,3,08,09,16,21,23,26,27,31,,,,,0.9,0.6,0.7*23
$GNGSA,A,3,71,72,73,74,80,82,83,84,,,,,0.9,0.6,0.7*25
$GNGSA,A,2,02,22,30,,,,,,,,,,0.9,0.6,0.7*24
$GNVTG,150.0,T,150.0,M,2.4,N,4.5,K,A*3A
$GNRMC,022642.00,A,4001.678706,N,11619.843099,E,2.4,150.0,120617,5.8,W,A*39
$GNGGA,022642.00,4001.678706,N,11619.843099,E,1,12,0.6,51.2,M,-8.4,M,,*5C
$GPGSV,3,1,09,04,00,000,34,08,35,199,29,09,35,295,25,16,64,025,33*71
$GPGSV,3,2,09,21,17,066,26,23,49,253,21,26,40,057,30,27,68,164,36*77
$GPGSV,3,3,09,31,16,118,26*49
$GLGSV,2,1,08,74,17,302,15,82,36,042,31,73,59,001,29,80,36,080,25*65
$GLGSV,2,2,08,84,14,177,18,83,54,125,30,71,19,251,16,72,20,305,13*6F
$GAGSV,1,1,03,02,42,077,28,22,42,137,32,30,65,334,30*50
$GNGSA,A,3,08,09,16,21,23,26,27,31,,,,,1.0,0.6,0.7*2B
$GNGSA,A,3,71,72,73,74,80,82,83,84,,,,,1.0,0.6,0.7*2D
$GNGSA,A,2,02,22,30,,,,,,,,,,1.0,0.6,0.7*2C
$GNVTG,146.0,T,146.0,M,2.5,N,4.6,K,A*38
$GNRMC,022643.00,A,4001.678182,N,11619.843718,E,2.5,146.0,120617,5.8,W,A*3A
$GNGGA,022643.00,4001.678182,N,11619.843718,E,1,12,0.6,50.3,M,-8.4,M,,*59
$GPGSV,3,1,09,04,00,000,29,08,35,199,30,09,35,295,32,16,64,025,33*73
$GPGSV,3,2,09,21,17,066,27,23,49,253,21,26,40,057,32,27,68,164,35*77
$GPGSV,3,3,09,31,16,118,26*49
$GLGSV,2,1,08,74,17,302,17,82,36,042,34,73,59,001,30,80,36,080,26*69
$GLGSV,2,2,08,84,14,177,17,83,54,125,28,71,19,251,19,72,20,305,13*66
$GAGSV,1,1,03,02,42,077,32,22,42,137,29,30,65,334,29*59
$GNGSA,A,3,08,09,16,21,23,26,27,31,,,,,1.0,0.6,0.7*2B
$GNGSA,A,3,71,72,73,74,80,82,83,84,,,,,1.0,0.6,0.7*2D
$GNGSA,A,2,02,22,30,,,,,,,,,,1.0,0.6,0.7*2C
$GNVTG,160.3,T,160.3,M,2.5,N,4.6,K,A*38
$GNRMC,022644.00,A,4001.677625,N,11619.844126,E,2.5,160.3,120617,5.8,W,A*33
$GNGGA,022644.00,4001.677625,N,11619.844126,E,1,12,0.6,50.0,M,-8.4,M,,*54
$GPGSV,3,1,09,04,00,000,33,08,35,199,27,09,35,295,31,16,64,025,29*76
$GPGSV,3,2,09,21,17,066,25,23,49,253,18,26,40,057,32,27,68,164,36*7C
$GPGSV,3,3,09,31,16,118,26*49
$GLGSV,2,1,08,74,17,302,17,82,36,042,31,73,59,001,28,80,36,080,24*67
$GLGSV,2,2,08,84,14,177,19,83,54,125,28,71,19,251,20,72,20,305,14*65
$GAGSV,1,1,03,02,42,077,30,22,42,137,28,30,65,334,27*54
$GNGSA,A,3,08,09,16,21,23,26,27,31,,,,,1.0,0.6,0.7*2B
$GNGSA,A,3,71,72,73,74,80,82,83,84,,,,,1.0,0.6,0.7*2D
$GNGSA,A,2,02,22,30,,,,,,,,,,1.0,0.6,0.7*2C
$GNVTG,171.0,T,171.0,M,2.5,N,4.7,K,A*39
$GNRMC,022645.00,A,4001.677043,N,11619.844299,E,2.5,171.0,120617,5.8,W,A*30
$GNGGA,022645.00,4001.677043,N,11619.844299,E,1,12,0.6,49.3,M,-8.4,M,,*5F
$GPGSV,3,1,09,04,00,000,35,08,35,199,28,09,35,295,34,16,64,025,31*73
$GPGSV,3,2,09,21,17,066,25,23,49,253,18,26,40,057,30,27,68,164,30*78
$GPGSV,3,3,09,31,16,118,31*4F
$GLGSV,2,1,08,74,17,302,15,82,36,042,30,73,59,001,29,80,36,080,24*65
$GLGSV,2,2,08,84,14,177,19,83,54,125,28,71,19,251,20,72,20,305,16*67
$GAGSV,1,1,03,02,42,077,28,22,42,137,29,30,65,334,31*5B
$GNGSA,A,3,08,09,16,21,23,26,27,31,,,,,0.9,0.6,0.7*23
$GNGSA,A,3,71,72,73,74,80,82,83,84,,,,,0.9,0.6,0.7*25
$GNGSA,A,2,02,22,30,,,,,,,,,,0.9,0.6,0.7*24
$GNVTG,185.6,T,185.6,M,2.6,N,4.8,K,A*35
$GNRMC,022646.00,A,4001.676408,N,11619.844438,E,2.6,185.6,120617,5.8,W,A*3A
$GNGGA,022646.00,4001.676408,N,11619.844438,E,1,12,0.6,50.3,M,-8.4,M,,*53
$GPGSV,3,1,09,04,00,000,31,08,35,199,28,09,35,295,35,16,64,025,30*77
$GPGSV,3,2,09,21,17,066,29,23,49,253,19,26,40,057,30,27,68,164,24*70
$GPGSV,3,3,09,31,16,118,27*48
$GLGSV,2,1,08,74,17,302,15,82,36,042,30,73,59,001,32,80,36,080,29*62
$GLGSV,2,2,08,84,14,177,17,83,54,125,27,71,19,251,17,72,20,305,16*62
$GAGSV,1,1,03,02,42,077,33,22,42,137,29,30,65,334,32*52
$GNGSA,A,3,08,09,16,21,23,26,27,31,,,,,0.9,0.6,0.7*23
$GNGSA,A,3,71,72,73,74,80,82,83,84,,,,,0.9,0.6,0.7*25
$GNGSA,A,2,02,22,30,,,,,,,,,,0.9,0.6,0.7*24
$GNVTG,180.9,T,180.9,M,2.6,N,4.9,K,A*34
$GNRMC,022647.00,A,4001.675693,N,11619.844534,E,2.6,180.9,120617,5.8,W,A*3F
$GNGGA,022647.00,4001.675693,N,11619.844534,E,1,12,0.6,49.8,M,-8.4,M,,*5F
$GPGSV,3,1,09,04,00,000,30,08,35,199,27,09,35,295,32,16,64,025,33*7D
$GPGSV,3,2,09,21,17,066,28,23,49,253,19,26,40,057,26,27,68,164,31*72
$GPGSV,3,3,09,31,16,118,29*46
$GLGSV,2,1,08,74,17,302,16,82,36,042,27,73,59,001,28,80,36,080,29*6C
$GLGSV,2,2,08,84,14,177,17,83,54,125,28,71,19,251,17,72,20,305,14*6F
$GAGSV,1,1,03,02,42,077,31,22,42,137,31,30,65,334,33*58
$GNGSA,A,3,08,09,16,21,23,26,27,31,,,,,0.9,0.6,0.7*23
$GNGSA,A,3,71,72,73,74,80,82,83,84,,,,,0.9,0.6,0.7*25
$GNGSA,A,2,02,22,30,,,,,,,,,,0.9,0.6,0.7*24
$GNVTG,183.2,T,183.2,M,2.6,N,4.9,K,A*34
$GNRMC,022648.00,A,4001.675012,N,11619.844652,E,2.6,183.2,120617,5.8,W,A*34
$GNGGA,022648.00,4001.675012,N,11619.844652,E,1,12,0.6,50.4,M,-8.4,M,,*58
$GPGSV,3,1,09,04,00,000,30,08,35,199,31,09,35,295,30,16,64,025,31*7A
$GPGSV,3,2,09,21,17,066,32,23,49,253,16,26,40,057,28,27,68,164,32*7B
$GPGSV,3,3,09,31,16,118,28*47
$GLGSV,2,1,08,74,17,302,16,82,36,042,26,73,59,001,29,80,36,080,27*62
$GLGSV,2,2,08,84,14,177,16,83,54,125,29,71,19,251,16,72,20,305,14*6E
$GAGSV,1,1,03,02,42,077,31,22,42,137,29,30,65,334,27*54
$GNGSA,A,3,08,09,16,21,23,26,27,31,,,,,0.9,0.6,0.7*23
$GNGSA,A,3,71,72,73,74,80,82,83,84,,,,,0.9,0.6,0.7*25
$GNGSA,A,2,02,22,30,,,,,,,,,,0.9,0.6,0.7*24
$GNVTG,184.6,T,184.6,M,2.6,N,4.8,K,A*35
$GNRMC,022649.00,A,4001.674462,N,11619.844738,E,2.6,184.6,120617,5.8,W,A*39
$GNGGA,022649.00,4001.674462,N,11619.844738,E,1,12,0.6,50.9,M,-8.4,M,,*5B
$GPGSV,3,1,09,04,00,000,29,08,35,199,30,09,35,295,31,16,64,025,29*7B
$GPGSV,3,2,09,21,17,066,27,23,49,253,16,26,40,057,32,27,68,164,33*75
$GPGSV,3,3,09,31,16,118,25*4A
$GLGSV,2,1,08,74,17,302,16,82,36,042,26,73,59,001,27,80,36,080,26*6D
$GLGSV,2,2,08,84,14,177,16,83,54,125,27,71,19,251,16,72,20,305,14*60
$GAGSV,1,1,03,02,42,077,32,22,42,137,28,30,65,334,25*54
$GNGSA,A,3,08,09,16,21,23,26,27,31,,,,,0.9,0.6,0.7*23
$GNGSA,A,3,71,72,73,74,80,82,83,84,,,,,0.9,0.6,0.7*25
$GNGSA,A,2,02,22,30,,,,,,,,,,0.9,0.6,0.7*24
$GNVTG,189.9,T,189.9,M,2.6,N,4.8,K,A*35
$GNRMC,022650.00,A,4001.673911,N,11619.844727,E,2.6,189.9,120617,5.8,W,A*33
$GNGGA,022650.00,4001.673911,N,11619.844727,E,1,12,0.6,51.3,M,-8.4,M,,*58
$GPGSV,3,1,09,04,00,000,32,08,35,199,27,09,35,295,31,16,64,025,22*7C
$GPGSV,3,2,09,21,17,066,27,23,49,253,19,26,40,057,30,27,68,164,28*72
$GPGSV,3,3,09,31,16,118,26*49
$GLGSV,2,1,08,74,17,302,15,82,36,042,28,73,59,001,24,80,36,080,25*60
$GLGSV,2,2,08,84,14,177,14,83,54,125,26,71,19,251,16,72,20,305,18*6F
$GAGSV,1,1,03,02,42,077,28,22,42,137,28,30,65,334,22*58
$GNGSA,A,3,08,09,16,21,23,26,27,31,,,,,0.9,0.6,0.7*23
$GNGSA,A,3,71,72,73,74,80,82,83,84,,,,,0.9,0.6,0.7*25
$GNGSA,A,2,02,22,30,,,,,,,,,,0.9,0.6,0.7*24
$GNVTG,184.9,T,184.9,M,2.6,N,4.8,K,A*35
$GNRMC,022651.00,A,4001.673369,N,11619.844845,E,2.6,184.9,120617,5.8,W,A*31
$GNGGA,022651.00,4001.673369,N,11619.844845,E,1,12,0.6,51.6,M,-8.4,M,,*52
$GPGSV,3,1,09,04,00,000,30,08,35,199,25,09,35,295,34,16,64,025,24*7F
$GPGSV,3,2,09,21,17,066,26,23,49,253,19,26,40,057,28,27,68,164,26*74
$GPGSV,3,3,09,31,16,118,28*47
$GLGSV,2,1,08,74,17,302,17,82,36,042,28,73,59,001,24,80,36,080,26*61
$GLGSV,2,2,08,84,14,177,21,83,54,125,30,71,19,251,16,72,20,305,16*60
$GAGSV,1,1,03,02,42,077,27,22,42,137,27,30,65,334,25*5F
$GNGSA,A,3,08,09,16,21,23,26,27,31,,,,,0.9,0.6,0.7*23
$GNGSA,A,3,71,72,73,74,80,82,83,84,,,,,0.9,0.6,0.7*25
$GNGSA,A,2,02,22,30,,,,,,,,,,0.9,0.6,0.7*24
$GNVTG,181.7,T,181.7,M,2.6,N,4.8,K,A*35
$GNRMC,022652.00,A,4001.672840,N,11619.845118,E,2.6,181.7,120617,5.8,W,A*38
$GNGGA,022652.00,4001.672840,N,11619.845118,E,1,12,0.6,52.6,M,-8.4,M,,*53
$GPGSV,3,1,09,04,00,000,29,08,35,199,26,09,35,295,35,16,64,025,26*77
$GPGSV,3,2,09,21,17,066,23,23,49,253,16,26,40,057,30,27,68,164,28*79
$GPGSV,3,3,09,31,16,118,27*48
$GLGSV,2,1,08,74,17,302,18,82,36,042,28,73,59,001,24,80,36,080,27*6F
$GLGSV,2,2,08,84,14,177,20,83,54,125,29,71,19,251,21,72,20,305,16*6D
$GAGSV,1,1,03,02,42,077,29,22,42,137,23,30,65,334,25*55
$GNGSA,A,3,08,09,16,21,23,26,27,31,,,,,0.9,0.6,0.7*23
$GNGSA,A,3,71,72,73,74,80,82,83,84,,,,,0.9,0.6,0.7*25
$GNGSA,A,2,02,22,30,,,,,,,,,,0.9,0.6,0.7*24
$GNVTG,180.7,T,180.7,M,2.6,N,4.8,K,A*35
$GNRMC,022653.00,A,4001.672355,N,11619.845323,E,2.6,180.7,120617,5.8,W,A*3D
$GNGGA,022653.00,4001.672355,N,11619.845323,E,1,12,0.6,52.8,M,-8.4,M,,*59
$GPGSV,3,1,09,04,00,000,30,08,35,199,27,09,35,295,32,16,64,025,26*79
$GPGSV,3,2,09,21,17,066,24,23,49,253,16,26,40,057,30,27,68,164,33*74
$GPGSV,3,3,09,31,16,118,31*4F
$GLGSV,2,1,08,74,17,302,18,82,36,042,23,73,59,001,22,80,36,080,27*62
$GLGSV,2,2,08,84,14,177,20,83,54,125,25,71,19,251,22,72,20,305,16*62
$GAGSV,1,1,03,02,42,077,27,22,42,137,26,30,65,334,22*59
$GNGSA,A,3,08,09,16,21,23,26,27,31,,,,,0.9,0.6,0.7*23
$GNGSA,A,3,71,72,73,74,80,82,83,84,,,,,0.9,0.6,0.7*25
$GNGSA,A,2,02,22,30,,,,,,,,,,0.9,0.6,0.7*24
$GNVTG,181.2,T,181.2,M,2.6,N,4.8,K,A*35
$GNRMC,022654.00,A,4001.671956,N,11619.845515,E,2.6,181.2,120617,5.8,W,A*37
$GNGGA,022654.00,4001.671956,N,11619.845515,E,1,12,0.6,53.5,M,-8.4,M,,*5B
$GPGSV,3,1,09,04,00,000,29,08,35,199,27,09,35,295,34,16,64,025,24*75
$GPGSV,3,2,09,21,17,066,24,23,49,253,17,26,40,057,30,27,68,164,33*75
$GPGSV,3,3,09,31,16,118,32*4C
$GLGSV,2,1,08,74,17,302,18,82,36,042,23,73,59,001,22,80,36,080,27*62
$GLGSV,2,2,08,84,14,177,21,83,54,125,26,71,19,251,22,72,20,305,16*60
$GAGSV,1,1,03,02,42,077,29,22,42,137,28,30,65,334,20*5B
$GNGSA,A,3,08,09,16,21,23,26,27,31,,,,,0.9,0.6,0.7*23
$GNGSA,A,3,71,72,73,74,80,82,83,84,,,,,0.9,0.6,0.7*25
$GNGSA,A,2,02,22,30,,,,,,,,,,0.9,0.6,0.7*24
$GNVTG,177.6,T,177.6,M,2.6,N,4.9,K,A*34
$GNRMC,022655.00,A,4001.671381,N,11619.845761,E,2.6,177.6,120617,5.8,W,A*3A
$GNGGA,022655.00,4001.671381,N,11619.845761,E,1,12,0.6,54.6,M,-8.4,M,,*5F
$GPGSV,3,1,09,04,00,000,29,08,35,199,32,09,35,295,30,16,64,025,27*76
$GPGSV,3,2,09,21,17,066,22,23,49,253,17,26,40,057,28,27,68,164,30*79
$GPGSV,3,3,09,31,16,118,30*4E
$GLGSV,2,1,08,74,17,302,17,82,36,042,26,73,59,001,19,80,36,080,27*60
$GLGSV,2,2,08,84,14,177,21,83,54,125,30,71,19,251,23,72,20,305,18*68
$GAGSV,1,1,03,02,42,077,25,22,42,137,26,30,65,334,25*5C
$GNGSA,A,3,08,09,16,21,23,26,27,31,,,,,0.9,0.6,0.7*23
$GNGSA,A,3,71,72,73,74,80,82,83,84,,,,,0.9,0.6,0.7*25
$GNGSA,A,2,02,22,30,,,,,,,,,,0.9,0.6,0.7*24
$GNVTG,176.3,T,176.3,M,2.6,N,4.9,K,A*34
$GNRMC,022656.00,A,4001.670783,N,11619.846015,E,2.6,176.3,120617,5.8,W,A*3D
$GNGGA,022656.00,4001.670783,N,11619.846015,E,1,12,0.6,55.2,M,-8.4,M,,*59
$GPGSV,3,1,09,04,00,000,25,08,35,199,31,09,35,295,31,16,64,025,24*7B
$GPGSV,3,2,09,21,17,066,22,23,49,253,16,26,40,057,30,27,68,164,29*79
$GPGSV,3,3,09,31,16,118,29*46
$GLGSV,2,1,08,74,17,302,16,82,36,042,26,73,59,001,22,80,36,080,24*6A
$GLGSV,2,2,08,84,14,177,14,83,54,125,29,71,19,251,21,72,20,305,18*64
$GAGSV,1,1,03,02,42,077,26,22,42,137,27,30,65,334,26*5D
$GNGSA,A,3,08,09,16,21,23,26,27,31,,,,,0.9,0.6,0.7*23
$GNGSA,A,3,71,72,73,74,80,82,83,84,,,,,0.9,0.6,0.7*25
$GNGSA,A,2,02,22,30,,,,,,,,,,0.9,0.6,0.7*24
$GNVTG,179.6,T,179.6,M,2.6,N,4.9,K,A*34
$GNRMC,022657.00,A,4001.670164,N,11619.846142,E,2.6,179.6,120617,5.8,W,A*3A
$GNGGA,022657.00,4001.670164,N,11619.846142,E,1,12,0.6,55.4,M,-8.4,M,,*52
$GPGSV,3,1,09,04,00,000,27,08,35,199,31,09,35,295,27,16,64,025,30*7B
$GPGSV,3,2,09,21,17,066,22,23,49,253,21,26,40,057,25,27,68,164,28*78
$GPGSV,3,3,09,31,16,118,31*4F
$GLGSV,2,1,08,74,17,302,17,82,36,042,29,73,59,001,23,80,36,080,25*64
$GLGSV,2,2,08,84,14,177,14,83,54,125,28,71,19,251,20,72,20,305,17*6B
$GAGSV,1,1,03,02,42,077,29,22,42,137,26,30,65,334,28*5D
$GNGSA,A,3,08,09,16,21,23,26,27,31,,,,,0.9,0.6,0.7*23
$GNGSA,A,3,71,72,73,74,80,82,83,84,,,,,0.9,0.6,0.7*25
$GNGSA,A,2,02,22,30,,,,,,,,,,0.9,0.6,0.7*24
$GNVTG,182.9,T,182.9,M,2.6,N,4.9,K,A*34
$GNRMC,022658.00,A,4001.669376,N,11619.846253,E,2.6,182.9,120617,5.8,W,A*34
$GNGGA,022658.00,4001.669376,N,11619.846253,E,1,12,0.6,56.9,M,-8.4,M,,*59
$GPGSV,3,1,09,04,00,000,33,08,35,199,33,09,35,295,27,16,64,025,27*7A
$GPGSV,3,2,09,21,17,066,21,23,49,253,25,26,40,057,27,27,68,164,32*76
$GPGSV,3,3,09,31,16,118,31*4F
$GLGSV,2,1,08,74,17,302,18,82,36,042,28,73,59,001,24,80,36,080,24*6C
$GLGSV,2,2,08,84,14,177,14,83,54,125,25,71,19,251,21,72,20,305,21*62
$GAGSV,1,1,03,02,42,077,28,22,42,137,25,30,65,334,21*56
$GNGSA,A,3,08,09,16,21,23,26,27,31,,,,,0.9,0.6,0.7*23
$GNGSA,A,3,71,72,73,74,80,82,83,84,,,,,0.9,0.6,0.7*25
$GNGSA,A,2,02,22,30,,,,,,,,,,0.9,0.6,0.7*24
$GNVTG,185.4,T,185.4,M,2.6,N,4.9,K,A*34
$GNRMC,022659.00,A,4001.668563,N,11619.846226,E,2.6,185.4,120617,5.8,W,A*3E
$GNGGA,022659.00,4001.668563,N,11619.846226,E,1,12,0.6,57.2,M,-8.4,M,,*53
$GPGSV,3,1,09,04,00,000,30,08,35,199,31,09,35,295,27,16,64,025,28*74
$GPGSV,3,2,09,21,17,066,22,23,49,253,29,26,40,057,27,27,68,164,31*7A
$GPGSV,3,3,09,31,16,118,28*47
$GLGSV,2,1,08,74,17,302,23,82,36,042,30,73,59,001,26,80,36,080,24*6F
$GLGSV,2,2,08,84,14,177,14,83,54,125,26,71,19,251,23,72,20,305,26*64
$GAGSV,1,1,03,02,42,077,28,22,42,137,24,30,65,334,24*52
$GNGSA,A,3,08,09,16,21,23,26,27,31,,,,,0.9,0.6,0.7*23
$GNGSA,A,3,71,72,73,74,80,82,83,84,,,,,0.9,0.6,0.7*25
$GNGSA,A,2,02,22,30,,,,,,,,,,0.9,0.6,0.7*24
$GNVTG,185.1,T,185.1,M,2.7,N,4.9,K,A*35
$GNRMC,022700.00,A,4001.667695,N,11619.846124,E,2.7,185.1,120617,5.8,W,A*33
$GNGGA,022700.00,4001.667695,N,11619.846124,E,1,12,0.6,56.9,M,-8.4,M,,*50
$GPGSV,3,1,09,04,00,000,30,08,35,199,29,09,35,295,21,16,63,025,29*7D
$GPGSV,3,2,09,21,17,066,27,23,49,253,30,26,40,057,30,27,68,164,28*79
$GPGSV,3,3,09,31,16,118,29*46
$GLGSV,2,1,08,74,17,302,28,82,36,042,29,73,59,001,30,80,36,080,25*6A
$GLGSV,2,2,08,84,14,177,14,83,54,125,25,71,19,251,23,72,20,305,25*64
$GAGSV,1,1,04,02,42,077,31,07,26,254,23,22,42,137,26,30,65,334,28*62
$GNGSA,A,3,08,09,16,21,23,26,27,31,,,,,0.9,0.6,0.7*23
$GNGSA,A,3,71,72,73,74,80,82,83,84,,,,,0.9,0.6,0.7*25
$GNGSA,A,3,02,07,22,30,,,,,,,,,0.9,0.6,0.7*22
$GNVTG,187.7,T,187.7,M,2.7,N,4.9,K,A*35
$GNRMC,022701.00,A,4001.666849,N,11619.845894,E,2.7,187.7,120617,5.8,W,A*39
$GNGGA,022701.00,4001.666849,N,11619.845894,E,1,12,0.6,56.7,M,-8.4,M,,*50
$GPGSV,3,1,09,04,00,000,31,08,35,199,30,09,35,295,16,16,63,025,30*78
$GPGSV,3,2,09,21,17,066,24,23,49,253,29,26,40,057,28,27,68,164,31*73
$GPGSV,3,3,09,31,16,118,28*47
$GLGSV,2,1,08,74,17,302,28,82,36,042,29,73,59,001,31,80,36,080,23*6D
$GLGSV,2,2,08,84,14,177,12,83,54,125,24,71,19,251,18,72,20,305,26*68
$GAGSV,1,1,04,02,42,077,30,07,26,254,24,22,42,137,24,30,65,334,28*66
$GNGSA,A,3,08,09,16,21,23,26,27,31,,,,,0.9,0.6,0.7*23
$GNGSA,A,3,71,72,73,74,80,82,83,84,,,,,0.9,0.6,0.7*25
$GNGSA,A,3,02,07,22,30,,,,,,,,,0.9,0.6,0.7*22
$GNVTG,189.9,T,189.9,M,2.7,N,4.9,K,A*35
$GNRMC,022702.00,A,4001.666040,N,11619.845532,E,2.7,189.9,120617,5.8,W,A*3A
$GNGGA,022702.00,4001.666040,N,11619.845532,E,1,12,0.6,55.8,M,-8.4,M,,*5F
$GPGSV,3,1,09,04,00,000,31,08,35,199,30,09,35,295,17,16,63,025,29*71
$GPGSV,3,2,09,21,17,066,25,23,49,253,30,26,40,057,30,27,68,164,31*73
$GPGSV,3,3,09,31,16,118,30*4E
$GLGSV,2,1,08,74,17,302,28,82,36,042,30,73,59,001,32,80,36,080,26*63
$GLGSV,2,2,08,84,14,177,12,83,54,125,26,71,19,251,21,72,20,305,27*61
$GAGSV,1,1,04,02,42,077,30,07,26,254,24,22,42,137,25,30,65,334,31*6F
$GNGSA,A,3,08,09,16,21,23,26,27,31,,,,,0.9,0.6,0.7*23
$GNGSA,A,3,71,72,73,74,80,82,83,84,,,,,0.9,0.6,0.7*25
$GNGSA,A,3,02,07,22,30,,,,,,,,,0.9,0.6,0.7*22
$GNVTG,185.0,T,185.0,M,2.7,N,4.9,K,A*35
$GNRMC,022703.00,A,4001.665171,N,11619.845282,E,2.7,185.0,120617,5.8,W,A*32
$GNGGA,022703.00,4001.665171,N,11619.845282,E,1,12,0.6,56.7,M,-8.4,M,,*5E
$GPGSV,3,1,09,04,00,000,31,08,35,199,29,09,35,295,20,16,63,025,28*7C
$GPGSV,3,2,09,21,17,066,24,23,49,253,28,26,40,057,30,27,68,164,30*7A
$GPGSV,3,3,09,31,16,118,28*47
$GLGSV,2,1,08,74,17,302,21,82,36,042,27,73,59,001,31,80,36,080,24*6D
$GLGSV,2,2,08,84,14,177,15,83,54,125,25,71,19,251,21,72,20,305,27*65
$GAGSV,1,1,04,02,42,077,29,07,26,254,20,22,42,137,23,30,65,334,29*6C
$GNGSA,A,3,08,09,16,21,23,26,27,31,,,,,0.9,0.6,0.7*23
$GNGSA,A,3,71,72,73,74,80,82,83,84,,,,,0.9,0.6,0.7*25
$GNGSA,A,3,02,07,22,30,,,,,,,,,0.9,0.6,0.7*22
$GNVTG,182.7,T,182.7,M,2.6,N,4.9,K,A*34
$GNRMC,022704.00,A,4001.664396,N,11619.845124,E,2.6,182.7,120617,5.8,W,A*31
$GNGGA,022704.00,4001.664396,N,11619.845124,E,1,12,0.6,56.7,M,-8.4,M,,*5C
$GPGSV,3,1,09,04,00,000,33,08,35,199,26,09,35,295,20,16,63,025,28*71
$GPGSV,3,2,09,21,17,066,25,23,49,253,25,26,40,057,28,27,68,164,31*7E
$GPGSV,3,3,09,31,16,118,30*4E
$GLGSV,2,1,08,74,17,302,19,82,36,042,29,73,59,001,31,80,36,080,23*6F
$GLGSV,2,2,08,84,14,177,16,83,54,125,23,71,19,251,22,72,20,305,22*66
$GAGSV,1,1,04,02,42,077,27,07,26,254,24,22,42,137,25,30,65,334,28*61
$GNGSA,A,3,08,09,16,21,23,26,27,31,,,,,0.9,0.6,0.7*23
$GNGSA,A,3,71,72,73,74,80,82,83,84,,,,,0.9,0.6,0.7*25
$GNGSA,A,3,02,07,22,30,,,,,,,,,0.9,0.6,0.7*22
$GNVTG,176.5,T,176.5,M,2.6,N,4.9,K,A*34
$GNRMC,022705.00,A,4001.663634,N,11619.845055,E,2.6,176.5,120617,5.8,W,A*34
$GNGGA,022705.00,4001.663634,N,11619.845055,E,1,12,0.6,56.9,M,-8.4,M,,*5E
$GPGSV,3,1,09,04,00,000,33,08,35,199,24,09,35,295,15,16,63,025,29*74
$GPGSV,3,2,09,21,17,066,24,23,49,253,31,26,40,057,28,27,68,164,29*73
$GPGSV,3,3,09,31,16,118,31*4F
$GLGSV,2,1,08,74,17,302,19,82,36,042,28,73,59,001,31,80,36,080,25*68
$GLGSV,2,2,08,84,14,177,16,83,54,125,25,71,19,251,21,72,20,305,21*60
$GAGSV,1,1,04,02,42,077,30,07,26,254,23,22,42,137,24,30,65,334,31*69
$GNGSA,A,3,08,09,16,21,23,26,27,31,,,,,0.9,0.6,0.7*23
$GNGSA,A,3,71,72,73,74,80,82,83,84,,,,,0.9,0.6,0.7*25
$GNGSA,A,3,02,07,22,30,,,,,,,,,0.9,0.6,0.7*22
$GNVTG,179.2,T,179.2,M,2.7,N,4.9,K,A*35
$GNRMC,022706.00,A,4001.662897,N,11619.845021,E,2.7,179.2,120617,5.8,W,A*3B
$GNGGA,022706.00,4001.662897,N,11619.845021,E,1,12,0.6,57.0,M,-8.4,M,,*50
$GPGSV,3,1,09,04,00,000,29,08,35,199,23,09,35,295,19,16,63,025,31*7D
$GPGSV,3,2,09,21,17,066,28,23,49,253,28,26,40,057,34,27,68,164,26*75
$GPGSV,3,3,09,31,16,118,28*47
$GLGSV,2,1,08,74,17,302,19,82,36,042,28,73,59,001,31,80,36,080,26*6B
$GLGSV,2,2,08,84,14,177,18,83,54,125,29,71,19,251,21,72,20,305,21*62
$GAGSV,1,1,04,02,42,077,28,07,26,254,23,22,42,137,25,30,65,334,33*63
$GNGSA,A,3,08,09,16,21,23,26,27,31,,,,,0.9,0.6,0.7*23
$GNGSA,A,3,71,72,73,74,80,82,83,84,,,,,0.9,0.6,0.7*25
$GNGSA,A,3,02,07,22,30,,,,,,,,,0.9,0.6,0.7*22
$GNVTG,180.6,T,180.6,M,2.7,N,4.9,K,A*35
$GNRMC,022707.00,A,4001.662119,N,11619.844935,E,2.7,180.6,120617,5.8,W,A*3A
$GNGGA,022707.00,4001.662119,N,11619.844935,E,1,12,0.6,57.4,M,-8.4,M,,*57
$GPGSV,3,1,09,04,00,000,30,08,35,199,26,09,35,295,16,16,63,025,31*7F
$GPGSV,3,2,09,21,17,066,24,23,49,253,28,26,40,057,32,27,68,164,21*78
$GPGSV,3,3,09,31,16,118,29*46
$GLGSV,2,1,08,74,17,302,13,82,36,042,28,73,59,001,33,80,36,080,21*64
$GLGSV,2,2,08,84,14,177,18,83,54,125,30,71,19,251,23,72,20,305,18*62
$GAGSV,1,1,04,02,42,077,27,07,26,254,23,22,42,137,24,30,65,334,31*6F
$GNGSA,A,3,08,09,16,21,23,26,27,31,,,,,0.9,0.6,0.7*23
$GNGSA,A,3,71,72,73,74,80,82,83,84,,,,,0.9,0.6,0.7*25
$GNGSA,A,3,02,07,22,30,,,,,,,,,0.9,0.6,0.7*22
$GNVTG,190.7,T,190.7,M,2.6,N,4.9,K,A*34
$GNRMC,022708.00,A,4001.661453,N,11619.844673,E,2.6,190.7,120617,5.8,W,A*31
$GNGGA,022708.00,4001.661453,N,11619.844673,E,1,12,0.6,57.4,M,-8.4,M,,*5D
$GPGSV,3,1,09,04,00,000,26,08,35,199,28,09,35,295,16,16,63,025,31*76
$GPGSV,3,2,09,21,17,066,24,23,49,253,23,26,40,057,29,27,68,164,30*79
$GPGSV,3,3,09,31,16,118,30*4E
$GLGSV,2,1,08,74,17,302,18,82,36,042,29,73,59,001,28,80,36,080,27*62
$GLGSV,2,2,08,84,14,177,18,83,54,125,31,71,19,251,22,72,20,305,18*62
$GAGSV,1,1,04,02,42,077,28,07,26,254,22,22,42,137,27,30,65,334,30*63
$GNGSA,A,3,08,09,16,21,23,26,27,31,,,,,0.9,0.6,0.7*23
$GNGSA,A,3,71,72,73,74,80,82,83,84,,,,,0.9,0.6,0.7*25
$GNGSA,A,3,02,07,22,30,,,,,,,,,0.9,0.6,0.7*22
$GNVTG,199.4,T,199.4,M,2.6,N,4.9,K,A*34
$GNRMC,022709.00,A,4001.660731,N,11619.844245,E,2.6,199.4,120617,5.8,W,A*3D
$GNGGA,022709.00,4001.660731,N,11619.844245,E,1,12,0.6,58.0,M,-8.4,M,,*50
$GPGSV,2,1,08,04,00,000,27,08,35,199,34,16,63,025,29,21,17,066,24*76
$GPGSV,2,2,08,23,49,253,29,26,40,057,32,27,68,164,30,31,16,118,28*7D
$GLGSV,2,1,08,74,17,302,18,82,36,042,27,73,59,001,26,80,36,080,29*6C
$GLGSV,2,2,08,84,14,177,15,83,54,125,24,71,19,251,28,72,20,305,18*61
$GAGSV,1,1,04,02,42,077,32,07,26,254,27,22,42,137,27,30,65,334,27*6B
$GNGSA,A,3,08,16,21,23,26,27,31,,,,,,0.9,0.6,0.7*2A
$GNGSA,A,3,71,72,73,74,80,82,83,84,,,,,0.9,0.6,0.7*25
$GNGSA,A,3,02,07,22,30,,,,,,,,,0.9,0.6,0.7*22
$GNVTG,203.9,T,203.9,M,2.6,N,4.8,K,A*35
$GNRMC,022710.00,A,4001.660070,N,11619.843746,E,2.6,203.9,120617,5.8,W,A*3B
$GNGGA,022710.00,4001.660070,N,11619.843746,E,1,12,0.6,57.7,M,-8.4,M,,*53
$GPGSV,2,1,08,04,00,000,28,08,35,199,34,16,63,025,28,21,17,066,26*7A
$GPGSV,2,2,08,23,49,253,33,26,40,057,30,27,68,164,34,31,16,118,28*70
$GLGSV,2,1,08,74,17,302,18,82,36,042,26,73,59,001,19,80,36,080,30*69
$GLGSV,2,2,08,84,14,177,19,83,54,125,27,71,19,251,28,72,20,305,18*6E
$GAGSV,1,1,04,02,42,077,33,07,26,254,28,22,42,137,30,30,65,334,21*65
$GNGSA,A,3,08,16,21,23,26,27,31,,,,,,0.9,0.6,0.7*2A
$GNGSA,A,3,71,72,73,74,80,82,83,84,,,,,0.9,0.6,0.7*25
$GNGSA,A,3,02,07,22,30,,,,,,,,,0.9,0.6,0.7*22
$GNVTG,189.7,T,189.7,M,2.7,N,5.0,K,A*3D
$GNRMC,022711.00,A,4001.659180,N,11619.843477,E,2.7,189.7,120617,5.8,W,A*31
$GNGGA,022711.00,4001.659180,N,11619.843477,E,1,12,0.6,58.0,M,-8.4,M,,*5F
$GPGSV,2,1,08,04,00,000,28,08,35,199,34,16,63,025,26,21,17,066,24*76
$GPGSV,2,2,08,23,49,253,35,26,40,057,33,27,68,164,33,31,16,118,29*73
$GLGSV,2,1,08,74,17,302,18,82,36,042,29,73,59,001,22,80,36,080,25*6A
$GLGSV,2,2,08,84,14,177,19,83,54,125,24,71,19,251,29,72,20,305,16*62
$GAGSV,1,1,04,02,42,077,31,07,26,254,30,22,42,137,26,30,65,334,21*69
$GNGSA,A,3,08,16,21,23,26,27,31,,,,,,0.9,0.6,0.7*2A
$GNGSA,A,3,71,72,73,74,80,82,83,84,,,,,0.9,0.6,0.7*25
$GNGSA,A,3,02,07,22,30,,,,,,,,,0.9,0.6,0.7*22
$GNVTG,181.6,T,181.6,M,2.6,N,4.9,K,A*34
$GNRMC,022712.00,A,4001.658252,N,11619.843357,E,2.6,181.6,120617,5.8,W,A*32
$GNGGA,022712.00,4001.658252,N,11619.843357,E,1,12,0.6,58.7,M,-8.4,M,,*53
$GPGSV,2,1,08,04,00,000,25,08,35,199,31,16,63,025,25,21,17,066,25*7C
$GPGSV,2,2,08,23,49,253,30,26,40,057,32,27,68,164,34,31,16,118,34*7C
$GLGSV,2,1,08,74,17,302,14,82,36,042,27,73,59,001,21,80,36,080,21*6F
$GLGSV,2,2,08,84,14,177,18,83,54,125,26,71,19,251,23,72,20,305,16*6B
$GAGSV,1,1,04,02,42,077,25,07,26,254,28,22,42,137,26,30,65,334,23*67
$GNGSA,A,3,08,16,21,23,26,27,31,,,,,,0.9,0.6,0.7*2A
$GNGSA,A,3,71,72,73,74,80,82,83,84,,,,,0.9,0.6,0.7*25
$GNGSA,A,3,02,07,22,30,,,,,,,,,0.9,0.6,0.7*22
$GNVTG,177.7,T,177.7,M,2.7,N,5.0,K,A*3D
$GNRMC,022713.00,A,4001.657304,N,11619.843212,E,2.7,177.7,120617,5.8,W,A*37
$GNGGA,022713.00,4001.657304,N,11619.843212,E,1,12,0.6,58.8,M,-8.4,M,,*50
$GPGSV,2,1,08,04,00,000,31,08,35,199,34,16,63,025,28,21,17,066,25*71
$GPGSV,2,2,08,23,49,253,31,26,40,057,27,27,68,164,32,31,16,118,31*7A
$GLGSV,2,1,08,74,17,302,18,82,36,042,26,73,59,001,18,80,36,080,20*69
$GLGSV,2,2,08,84,14,177,21,83,54,125,25,71,19,251,28,72,20,305,16*69
$GAGSV,1,1,04,02,42,077,25,07,26,254,26,22,42,137,29,30,65,334,23*66
$GNGSA,A,3,08,16,21,23,26,27,31,,,,,,0.9,0.6,0.7*2A
$GNGSA,A,3,71,72,73,74,80,82,83,84,,,,,0.9,0.6,0.7*25
$GNGSA,A,3,02,07,22,30,,,,,,,,,0.9,0.6,0.7*22
$GNVTG,181.2,T,181.2,M,2.7,N,5.0,K,A*3D
$GNRMC,022714.00,A,4001.656171,N,11619.843144,E,2.7,181.2,120617,5.8,W,A*3D
$GNGGA,022714.00,4001.656171,N,11619.843144,E,1,12,0.6,59.1,M,-8.4,M,,*5E
$GPGSV,2,1,08,04,00,000,31,08,35,199,32,16,63,025,27,21,17,066,24*79
$GPGSV,2,2,08,23,49,253,29,26,40,057,27,27,68,164,33,31,16,118,33*70
$GLGSV,2,1,08,74,17,302,18,82,36,042,25,73,59,001,23,80,36,080,22*60
$GLGSV,2,2,08,84,14,177,20,83,54,125,27,71,19,251,26,72,20,305,14*66
$GAGSV,1,1,04,02,42,077,26,07,26,254,26,22,42,137,28,30,65,334,27*60
$GNGSA,A,3,08,16,21,23,26,27,31,,,,,,1.0,0.6,0.7*22
$GNGSA,A,3,71,72,73,74,80,82,83,84,,,,,1.0,0.6,0.7*2D
$GNGSA,A,3,02,07,22,30,,,,,,,,,1.0,0.6,0.7*2A
$GNVTG,178.4,T,178.4,M,2.7,N,5.1,K,A*3C
$GNRMC,022715.00,A,4001.655053,N,11619.843045,E,2.7,178.4,120617,5.8,W,A*3E
$GNGGA,022715.00,4001.655053,N,11619.843045,E,1,12,0.6,59.9,M,-8.4,M,,*55
$GPGSV,2,1,08,04,00,000,30,08,35,199,32,16,63,025,29,21,17,066,26*74
$GPGSV,2,2,08,23,49,253,33,26,40,057,27,27,68,164,33,31,16,118,33*7B
$GLGSV,2,1,08,74,17,302,18,82,36,042,23,73,59,001,27,80,36,080,24*64
$GLGSV,2,2,08,84,14,177,20,83,54,125,29,71,19,251,20,72,20,305,14*6E
$GAGSV,1,1,04,02,42,077,29,07,26,254,28,22,42,137,29,30,65,334,28*6F
$GNGSA,A,3,08,16,21,23,26,27,31,,,,,,1.0,0.6,0.7*22
$GNGSA,A,3,71,72,73,74,80,82,83,84,,,,,1.0,0.6,0.7*2D
$GNGSA,A,3,02,07,22,30,,,,,,,,,1.0,0.6,0.7*2A
$GNVTG,171.2,T,171.2,M,2.8,N,5.1,K,A*33
$GNRMC,022716.00,A,4001.653946,N,11619.843072,E,2.8,171.2,120617,5.8,W,A*32
$GNGGA,022716.00,4001.653946,N,11619.843072,E,1,12,0.6,59.8,M,-8.4,M,,*58
$GPGSV,2,1,08,04,00,000,30,08,35,199,31,16,63,025,29,21,17,066,22*73
$GPGSV,2,2,08,23,49,253,31,26,40,057,30,27,68,164,34,31,16,118,27*7D
$GLGSV,2,1,08,74,17,302,14,82,36,042,28,73,59,001,26,80,36,080,27*61
$GLGSV,2,2,08,84,14,177,19,83,54,125,28,71,19,251,19,72,20,305,14*6F
$GAGSV,1,1,04,02,42,077,33,07,26,254,27,22,42,137,29,30,65,334,29*6A
$GNGSA,A,3,08,16,21,23,26,27,31,,,,,,1.0,0.6,0.7*22
$GNGSA,A,3,71,72,73,74,80,82,83,84,,,,,1.0,0.6,0.7*2D
$GNGSA,A,3,02,07,22,30,,,,,,,,,1.0,0.6,0.7*2A
$GNVTG,171.5,T,171.5,M,2.8,N,5.1,K,A*33
$GNRMC,022717.00,A,4001.652861,N,11619.843156,E,2.8,171.5,120617,5.8,W,A*36
$GNGGA,022717.00,4001.652861,N,11619.843156,E,1,12,0.6,60.3,M,-8.4,M,,*5A
$GPGSV,2,1,08,04,00,000,28,08,35,199,29,16,63,025,29,21,17,066,22*73
$GPGSV,2,2,08,23,49,253,32,26,40,057,31,27,68,164,34,31,16,118,30*79
$GLGSV,2,1,08,74,17,302,14,82,36,042,29,73,59,001,27,80,36,080,27*61
$GLGSV,2,2,08,84,14,177,23,83,54,125,26,71,19,251,19,72,20,305,14*68
$GAGSV,1,1,04,02,42,077,30,07,26,254,26,22,42,137,25,30,65,334,28*65
$GNGSA,A,3,08,16,21,23,26,27,31,,,,,,1.0,0.6,0.7*22
$GNGSA,A,3,71,72,73,74,80,82,83,84,,,,,1.0,0.6,0.7*2D
$GNGSA,A,3,02,07,22,30,,,,,,,,,1.0,0.6,0.7*2A
$GNVTG,173.1,T,173.1,M,2.8,N,5.2,K,A*30
$GNRMC,022718.00,A,4001.651736,N,11619.843184,E,2.8,173.1,120617,5.8,W,A*3E
$GNGGA,022718.00,4001.651736,N,11619.843184,E,1,12,0.6,60.9,M,-8.4,M,,*5E
$GPGSV,3,1,09,04,00,000,31,08,35,199,29,09,35,295,18,16,63,025,30*7E
$GPGSV,3,2,09,21,17,066,24,23,49,253,34,26,40,057,31,27,68,164,33*75
$GPGSV,3,3,09,31,16,118,25*4A
$GLGSV,2,1,08,74,17,302,14,82,36,042,28,73,59,001,26,80,36,080,26*60
$GLGSV,2,2,08,84,14,177,21,83,54,125,25,71,19,251,19,72,20,305,15*68
$GAGSV,2,1,05,02,42,077,31,07,26,254,27,08,11,203,13,22,42,137,28*6F
$GAGSV,2,2,05,30,65,334,30*5A
$GNGSA,A,3,08,09,16,21,23,26,27,31,,,,,0.9,0.6,0.7*23
$GNGSA,A,3,71,72,73,74,80,82,83,84,,,,,0.9,0.6,0.7*25
$GNGSA,A,3,02,07,08,22,30,,,,,,,,0.9,0.6,0.7*2A
$GNVTG,179.4,T,179.4,M,2.8,N,5.2,K,A*30
$GNRMC,022719.00,A,4001.650621,N,11619.843076,E,2.8,179.4,120617,5.8,W,A*3A
$GNGGA,022719.00,4001.650621,N,11619.843076,E,1,12,0.6,61.2,M,-8.4,M,,*5F
$GPGSV,3,1,09,04,00,000,28,08,35,199,25,09,35,295,18,16,63,025,28*73
$GPGSV,3,2,09,21,17,066,24,23,49,253,32,26,40,057,31,27,68,164,34*74
$GPGSV,3,3,09,31,16,118,26*49
$GLGSV,2,1,08,74,17,302,14,82,36,042,30,73,59,001,27,80,36,080,26*68
$GLGSV,2,2,08,84,14,177,18,83,54,125,25,71,19,251,17,72,20,305,16*6F
$GAGSV,2,1,05,02,42,077,31,07,26,254,26,08,11,203,13,22,42,137,28*6E
$GAGSV,2,2,05,30,65,334,27*5C
$GNGSA,A,3,08,09,16,21,23,26,27,31,,,,,0.9,0.6,0.7*23
$GNGSA,A,3,71,72,73,74,80,82,83,84,,,,,0.9,0.6,0.7*25
$GNGSA,A,3,02,07,08,22,30,,,,,,,,0.9,0.6,0.7*2A
$GNVTG,183.6,T,183.6,M,2.8,N,5.1,K,A*33
$GNRMC,022720.00,A,4001.649721,N,11619.842875,E,2.8,183.6,120617,5.8,W,A*34
$GNGGA,022720.00,4001.649721,N,11619.842875,E,1,12,0.6,61.0,M,-8.4,M,,*54
$GPGSV,3,1,09,04,00,000,28,08,35,199,21,09,35,295,18,16,63,025,31*7F
$GPGSV,3,2,09,21,17,066,21,23,49,253,34,26,40,057,33,27,68,164,33*72
$GPGSV,3,3,09,31,16,118,26*49
$GLGSV,2,1,08,74,17,302,15,82,36,042,29,73,59,001,29,80,36,080,27*6E
$GLGSV,2,2,08,84,14,177,19,83,54,125,27,71,19,251,19,72,20,305,19*6D
$GAGSV,2,1,05,02,42,077,30,07,26,254,24,08,11,203,13,22,42,137,30*64
$GAGSV,2,2,05,30,65,334,29*52
$GNGSA,A,3,08,09,16,21,23,26,27,31,,,,,0.9,0.6,0.7*23
$GNGSA,A,3,71,72,73,74,80,82,83,84,,,,,0.9,0.6,0.7*25
$GNGSA,A,3,02,07,08,22,30,,,,,,,,0.9,0.6,0.7*2A
$GNVTG,192.3,T,192.3,M,2.8,N,5.1,K,A*33
$GNRMC,022721.00,A,4001.648941,N,11619.842546,E,2.8,192.3,120617,5.8,W,A*34
$GNGGA,022721.00,4001.648941,N,11619.842546,E,1,12,0.6,60.6,M,-8.4,M,,*56
$GPGSV,3,1,09,04,00,000,29,08,35,199,26,09,35,295,19,16,63,025,31*78
$GPGSV,3,2,09,21,17,066,22,23,49,253,33,26,40,057,28,27,68,164,33*7C
$GPGSV,3,3,09,31,16,118,22*4D
$GLGSV,2,1,08,74,17,302,20,82,36,042,24,73,59,001,27,80,36,080,25*69
$GLGSV,2,2,08,84,14,177,16,83,54,125,24,71,19,251,22,72,20,305,19*69
$GAGSV,2,1,05,02,42,077,27,07,26,254,25,08,11,203,13,22,42,137,30*63
$GAGSV,2,2,05,30,65,334,29*52
$GNGSA,A,3,08,09,16,21,23,26,27,31,,,,,0.9,0.6,0.7*23
$GNGSA,A,3,71,72,73,74,80,82,83,84,,,,,0.9,0.6,0.7*25
$GNGSA,A,3,02,07,08,22,30,,,,,,,,0.9,0.6,0.7*2A
$GNVTG,196.0,T,196.0,M,2.8,N,5.1,K,A*33
$GNRMC,022722.00,A,4001.648088,N,11619.842125,E,2.8,196.0,120617,5.8,W,A*3D
$GNGGA,022722.00,4001.648088,N,11619.842125,E,1,12,0.6,60.2,M,-8.4,M,,*5C
$GPGSV,3,1,09,04,00,000,26,08,35,199,22,09,35,295,20,16,63,025,26*7F
$GPGSV,3,2,09,21,17,066,20,23,49,253,29,26,40,057,27,27,68,164,32*7B
$GPGSV,3,3,09,31,16,118,29*46
$GLGSV,2,1,08,74,17,302,17,82,36,042,24,73,59,001,24,80,36,080,28*63
$GLGSV,2,2,08,84,14,177,16,83,54,125,27,71,19,251,20,72,20,305,14*65
$GAGSV,2,1,05,02,42,077,28,07,26,254,26,08,11,203,13,22,42,137,29*67
$GAGSV,2,2,05,30,65,334,25*5E
$GNGSA,A,3,08,09,16,21,23,26,27,31,,,,,0.9,0.6,0.7*23
$GNGSA,A,3,71,72,73,74,80,82,83,84,,,,,0.9,0.6,0.7*25
$GNGSA,A,3,02,07,08,22,30,,,,,,,,0.9,0.6,0.7*2A
$GNVTG,194.8,T,194.8,M,2.7,N,5.1,K,A*3C
$GNRMC,022723.00,A,4001.647406,N,11619.841785,E,2.7,194.8,120617,5.8,W,A*3B
$GNGGA,022723.00,4001.647406,N,11619.841785,E,1,12,0.6,60.3,M,-8.4,M,,*5E
$GPGSV,3,1,09,04,00,000,29,08,35,199,22,09,35,295,20,16,63,025,23*75
$GPGSV,3,2,09,21,17,066,18,23,49,253,27,26,40,057,24,27,68,164,26*78
$GPGSV,3,3,09,31,16,118,28*47
$GLGSV,2,1,08,74,17,302,19,82,36,042,23,73,59,001,22,80,36,080,26*62
$GLGSV,2,2,08,84,14,177,16,83,54,125,24,71,19,251,21,72,20,305,15*66
$GAGSV,2,1,05,02,42,077,28,07,26,254,24,08,11,203,13,22,42,137,25*69
$GAGSV,2,2,05,30,65,334,22*59
$GNGSA,A,3,08,09,16,21,23,26,27,31,,,,,0.9,0.6,0.7*23
$GNGSA,A,3,71,72,73,74,80,82,83,84,,,,,0.9,0.6,0.7*25
$GNGSA,A,3,02,07,08,22,30,,,,,,,,0.9,0.6,0.7*2A
$GNVTG,185.5,T,185.5,M,2.7,N,5.1,K,A*3C
$GNRMC,022724.00,A,4001.646709,N,11619.841598,E,2.7,185.5,120617,5.8,W,A*32
$GNGGA,022724.00,4001.646709,N,11619.841598,E,1,12,0.6,60.5,M,-8.4,M,,*5C
$GPGSV,3,1,09,04,00,000,30,08,35,199,25,09,35,295,20,16,63,025,25*7C
$GPGSV,3,2,09,21,17,066,23,23,49,253,21,26,40,057,28,27,68,164,27*7B
$GPGSV,3,3,09,31,16,118,31*4F
$GLGSV,2,1,08,74,17,302,21,82,36,042,22,73,59,001,21,80,36,080,24*69
$GLGSV,2,2,08,84,14,177,16,83,54,125,24,71,19,251,23,72,20,305,19*68
$GAGSV,2,1,05,02,42,077,28,07,26,254,20,08,11,203,13,22,42,137,27*6F
$GAGSV,2,2,05,30,65,334,18*50
$GNGSA,A,3,08,09,16,21,23,26,27,31,,,,,0.9,0.6,0.7*23
$GNGSA,A,3,71,72,73,74,80,82,83,84,,,,,0.9,0.6,0.7*25
$GNGSA,A,3,02,07,08,22,30,,,,,,,,0.9,0.6,0.7*2A
$GNVTG,180.2,T,180.2,M,2.7,N,5.0,K,A*3D
$GNRMC,022725.00,A,4001.646005,N,11619.841613,E,2.7,180.2,120617,5.8,W,A*3A
$GNGGA,022725.00,4001.646005,N,11619.841613,E,1,12,0.6,61.1,M,-8.4,M,,*53
$GPGSV,3,1,09,04,00,000,31,08,35,199,24,09,35,295,20,16,63,025,23*7A
$GPGSV,3,2,09,21,17,066,24,23,49,253,25,26,40,057,28,27,68,164,26*79
$GPGSV,3,3,09,31,16,118,29*46
$GLGSV,2,1,08,74,17,302,23,82,36,042,22,73,59,001,18,80,36,080,25*60
$GLGSV,2,2,08,84,14,177,13,83,54,125,24,71,19,251,26,72,20,305,19*68
$GAGSV,2,1,05,02,42,077,29,07,26,254,27,08,11,203,13,22,42,137,23*6D
$GAGSV,2,2,05,30,65,334,18*50
$GNGSA,A,3,08,09,16,21,23,26,27,31,,,,,0.9,0.6,0.7*23
$GNGSA,A,3,71,72,73,74,80,82,83,84,,,,,0.9,0.6,0.7*25
$GNGSA,A,3,02,07,08,22,30,,,,,,,,0.9,0.6,0.7*2A
$GNVTG,179.5,T,179.5,M,2.7,N,5.0,K,A*3D
$GNRMC,022726.00,A,4001.645383,N,11619.841644,E,2.7,179.5,120617,5.8,W,A*34
$GNGGA,022726.00,4001.645383,N,11619.841644,E,1,12,0.6,61.3,M,-8.4,M,,*5E
$GPGSV,3,1,09,04,00,000,28,08,35,199,23,09,35,295,20,16,63,025,25*73
$GPGSV,3,2,09,21,17,066,27,23,49,253,27,26,40,057,29,27,68,164,29*76
$GPGSV,3,3,09,31,16,118,30*4E
$GLGSV,2,1,08,74,17,302,24,82,36,042,24,73,59,001,22,80,36,080,25*68
$GLGSV,2,2,08,84,14,177,20,83,54,125,24,71,19,251,22,72,20,305,19*6C
$GAGSV,2,1,05,02,42,077,27,07,26,254,26,08,11,203,16,22,42,137,26*62
$GAGSV,2,2,05,30,65,334,18*50
$GNGSA,A,3,08,09,16,21,23,26,27,31,,,,,0.9,0.6,0.7*23
$GNGSA,A,3,71,72,73,74,80,82,83,84,,,,,0.9,0.6,0.7*25
$GNGSA,A,3,02,07,08,22,30,,,,,,,,0.9,0.6,0.7*2A
$GNVTG,179.4,T,179.4,M,2.7,N,5.0,K,A*3D
$GNRMC,022727.00,A,4001.644905,N,11619.841786,E,2.7,179.4,120617,5.8,W,A*3E
$GNGGA,022727.00,4001.644905,N,11619.841786,E,1,12,0.6,60.3,M,-8.4,M,,*54
$GPGSV,3,1,09,04,00,000,28,08,35,199,22,09,35,295,20,16,63,025,24*73
$GPGSV,3,2,09,21,17,066,29,23,49,253,26,26,40,057,29,27,68,164,30*71
$GPGSV,3,3,09,31,16,118,30*4E
$GLGSV,2,1,08,74,17,302,19,82,36,042,25,73,59,001,22,80,36,080,25*67
$GLGSV,2,2,08,84,14,177,19,83,54,125,23,71,19,251,22,72,20,305,18*60
$GAGSV,2,1,05,02,42,077,30,07,26,254,17,08,11,203,16,22,42,137,28*68
$GAGSV,2,2,05,30,65,334,18*50
$GNGSA,A,3,08,09,16,21,23,26,27,31,,,,,0.9,0.6,0.7*23
$GNGSA,A,3,71,72,73,74,80,82,83,84,,,,,0.9,0.6,0.7*25
$GNGSA,A,3,02,07,08,22,30,,,,,,,,0.9,0.6,0.7*2A
$GNVTG,179.5,T,179.5,M,2.6,N,4.9,K,A*34
$GNRMC,022728.00,A,4001.644522,N,11619.841994,E,2.6,179.5,120617,5.8,W,A*35
$GNGGA,022728.00,4001.644522,N,11619.841994,E,1,12,0.6,59.4,M,-8.4,M,,*52
$GPGSV,3,1,09,04,00,000,29,08,35,199,21,09,35,295,20,16,63,025,23*76
$GPGSV,3,2,09,21,17,066,33,23,49,253,22,26,40,057,29,27,68,164,29*76
$GPGSV,3,3,09,31,16,118,32*4C
$GLGSV,2,1,08,74,17,302,19,82,36,042,20,73,59,001,21,80,36,080,24*60
$GLGSV,2,2,08,84,14,177,19,83,54,125,24,71,19,251,22,72,20,305,18*67
$GAGSV,2,1,05,02,42,077,31,07,26,254,17,08,11,203,17,22,42,137,29*69
$GAGSV,2,2,05,30,65,334,18*50
$GNGSA,A,3,08,09,16,21,23,26,27,31,,,,,0.9,0.6,0.7*23
$GNGSA,A,3,71,72,73,74,80,82,83,84,,,,,0.9,0.6,0.7*25
$GNGSA,A,3,02,07,08,22,30,,,,,,,,0.9,0.6,0.7*2A
$GNVTG,175.9,T,175.9,M,2.6,N,4.9,K,A*34
$GNRMC,022729.00,A,4001.644190,N,11619.842342,E,2.6,175.9,120617,5.8,W,A*3B
$GNGGA,022729.00,4001.644190,N,11619.842342,E,1,12,0.6,57.8,M,-8.4,M,,*5E
$GPGSV,3,1,09,04,00,000,27,08,35,199,20,09,35,295,20,16,63,025,27*7D
$GPGSV,3,2,09,21,17,066,32,23,49,253,24,26,40,057,29,27,68,164,32*7B
$GPGSV,3,3,09,31,16,118,30*4E
$GLGSV,2,1,08,74,17,302,19,82,36,042,22,73,59,001,16,80,36,080,25*67
$GLGSV,2,2,08,84,14,177,19,83,54,125,23,71,19,251,22,72,20,305,15*6D
$GAGSV,2,1,05,02,42,077,30,07,26,254,17,08,11,203,19,22,42,137,28*67
$GAGSV,2,2,05,30,65,334,15*5D
$GNGSA,A,3,08,09,16,21,23,26,27,31,,,,,0.9,0.6,0.7*23
$GNGSA,A,3,71,72,73,74,80,82,83,84,,,,,0.9,0.6,0.7*25
$GNGSA,A,3,02,07,08,22,30,,,,,,,,0.9,0.6,0.7*2A
$GNVTG,173.3,T,173.3,M,2.6,N,4.9,K,A*34
$GNRMC,022730.00,A,4001.643821,N,11619.842731,E,2.6,173.3,120617,5.8,W,A*3B
$GNGGA,022730.00,4001.643821,N,11619.842731,E,1,12,0.6,56.5,M,-8.4,M,,*5E
$GPGSV,3,1,09,04,00,000,30,08,35,199,24,09,35,295,20,16,63,025,28*70
$GPGSV,3,2,09,21,17,066,30,23,49,253,27,26,40,057,31,27,68,164,34*75
$GPGSV,3,3,09,31,16,118,29*46
$GLGSV,2,1,08,74,17,302,19,82,36,042,23,73,59,001,23,80,36,080,26*63
$GLGSV,2,2,08,84,14,177,15,83,54,125,25,71,19,251,14,72,20,305,15*62
$GAGSV,2,1,05,02,42,077,29,07,26,254,20,08,11,203,19,22,42,137,26*65
$GAGSV,2,2,05,30,65,334,17*5F
$GNGSA,A,3,08,09,16,21,23,26,27,31,,,,,0.9,0.6,0.7*23
$GNGSA,A,3,71,72,73,74,80,82,83,84,,,,,0.9,0.6,0.7*25
$GNGSA,A,3,02,07,08,22,30,,,,,,,,0.9,0.6,0.7*2A
$GNVTG,167.9,T,167.9,M,2.6,N,4.8,K,A*35
$GNRMC,022731.00,A,4001.643561,N,11619.843245,E,2.6,167.9,120617,5.8,W,A*3B
$GNGGA,022731.00,4001.643561,N,11619.843245,E,1,12,0.6,55.1,M,-8.4,M,,*56
$GPGSV,3,1,09,04,00,000,27,08,35,199,21,09,35,295,20,16,63,025,30*7A
$GPGSV,3,2,09,21,17,066,29,23,49,253,27,26,40,057,31,27,68,164,33*7A
$GPGSV,3,3,09,31,16,118,30*4E
$GLGSV,2,1,08,74,17,302,19,82,36,042,27,73,59,001,23,80,36,080,26*67
$GLGSV,2,2,08,84,14,177,18,83,54,125,24,71,19,251,14,72,20,305,15*6E
$GAGSV,2,1,05,02,42,077,29,07,26,254,22,08,11,203,19,22,42,137,26*67
$GAGSV,2,2,05,30,65,334,16*5E
$GNGSA,A,3,08,09,16,21,23,26,27,31,,,,,0.9,0.6,0.7*23
$GNGSA,A,3,71,72,73,74,80,82,83,84,,,,,0.9,0.6,0.7*25
$GNGSA,A,3,02,07,08,22,30,,,,,,,,0.9,0.6,0.7*2A
$GNVTG,177.4,T,177.4,M,2.6,N,4.8,K,A*35
$GNRMC,022732.00,A,4001.643182,N,11619.843552,E,2.6,177.4,120617,5.8,W,A*3C
$GNGGA,022732.00,4001.643182,N,11619.843552,E,1,12,0.6,54.9,M,-8.4,M,,*54
$GPGSV,3,1,09,04,00,000,31,08,35,199,20,09,35,295,20,16,63,025,31*7D
$GPGSV,3,2,09,21,17,066,30,23,49,253,23,26,40,057,31,27,68,164,30*75
$GPGSV,3,3,09,31,16,118,29*46
$GLGSV,2,1,08,74,17,302,19,82,36,042,30,73,59,001,24,80,36,080,24*64
$GLGSV,2,2,08,84,14,177,16,83,54,125,25,71,19,251,14,72,20,305,15*61
$GAGSV,2,1,05,02,42,077,29,07,26,254,21,08,11,203,15,22,42,137,27*69
$GAGSV,2,2,05,30,65,334,16*5E
$GNGSA,A,3,08,09,16,21,23,26,27,31,,,,,0.9,0.6,0.7*23
$GNGSA,A,3,71,72,73,74,80,82,83,84,,,,,0.9,0.6,0.7*25
$GNGSA,A,3,02,07,08,22,30,,,,,,,,0.9,0.6,0.7*2A
$GNVTG,183.2,T,183.2,M,2.6,N,4.8,K,A*35
$GNRMC,022733.00,A,4001.642727,N,11619.843684,E,2.6,183.2,120617,5.8,W,A*30
$GNGGA,022733.00,4001.642727,N,11619.843684,E,1,12,0.6,54.2,M,-8.4,M,,*5E
$GPGSV,3,1,09,04,00,000,31,08,35,199,24,09,35,295,20,16,63,025,34*7C
$GPGSV,3,2,09,21,17,066,29,23,49,253,26,26,40,057,31,27,68,164,32*7A
$GPGSV,3,3,09,31,16,118,32*4C
$GLGSV,2,1,08,74,17,302,10,82,36,042,27,73,59,001,24,80,36,080,25*6A
$GLGSV,2,2,08,84,14,177,20,83,54,125,26,71,19,251,14,72,20,305,15*67
$GAGSV,2,1,05,02,42,077,31,07,26,254,22,08,11,203,21,22,42,137,25*66
$GAGSV,2,2,05,30,65,334,17*5F
$GNGSA,A,3,08,09,16,21,23,26,27,31,,,,,0.9,0.6,0.7*23
$GNGSA,A,3,71,72,73,74,80,82,83,84,,,,,0.9,0.6,0.7*25
$GNGSA,A,3,02,07,08,22,30,,,,,,,,0.9,0.6,0.7*2A
$GNVTG,189.2,T,189.2,M,2.6,N,4.8,K,A*35
$GNRMC,022734.00,A,4001.642274,N,11619.843719,E,2.6,189.2,120617,5.8,W,A*3B
$GNGGA,022734.00,4001.642274,N,11619.843719,E,1,12,0.6,52.7,M,-8.4,M,,*5C
$GPGSV,3,1,09,04,00,000,30,08,35,199,27,09,35,295,20,16,63,025,26*7D
$GPGSV,3,2,09,21,17,066,31,23,49,253,25,26,40,057,32,27,68,164,31*70
$GPGSV,3,3,09,31,16,118,31*4F
$GLGSV,2,1,08,74,17,302,10,82,36,042,26,73,59,001,23,80,36,080,27*6E
$GLGSV,2,2,08,84,14,177,22,83,54,125,29,71,19,251,14,72,20,305,15*6A
$GAGSV,2,1,05,02,42,077,31,07,26,254,22,08,11,203,19,22,42,137,28*60
$GAGSV,2,2,05,30,65,334,22*59
$GNGSA,A,3,08,09,16,21,23,26,27,31,,,,,0.9,0.6,0.7*23
$GNGSA,A,3,71,72,73,74,80,82,83,84,,,,,0.9,0.6,0.7*25
$GNGSA,A,3,02,07,08,22,30,,,,,,,,0.9,0.6,0.7*2A
$GNVTG,174.5,T,174.5,M,2.6,N,4.8,K,A*35
$GNRMC,022735.00,A,4001.641740,N,11619.843906,E,2.6,174.5,120617,5.8,W,A*3E
$GNGGA,022735.00,4001.641740,N,11619.843906,E,1,12,0.6,52.5,M,-8.4,M,,*5E
$GPGSV,3,1,09,04,00,000,29,08,35,199,27,09,35,295,20,16,63,025,27*74
$GPGSV,3,2,09,21,17,066,30,23,49,253,30,26,40,057,33,27,68,164,32*77
$GPGSV,3,3,09,31,16,118,31*4F
$GLGSV,2,1,08,74,17,302,10,82,36,042,27,73,59,001,26,80,36,080,26*6B
$GLGSV,2,2,08,84,14,177,21,83,54,125,24,71,19,251,14,72,20,305,15*64
$GAGSV,2,1,05,02,42,077,29,07,26,254,25,08,11,203,22,22,42,137,28*66
$GAGSV,2,2,05,30,65,334,20*5B
$GNGSA,A,3,08,09,16,21,23,26,27,31,,,,,1.0,0.7,0.7*2A
$GNGSA,A,3,71,72,73,74,80,82,83,84,,,,,1.0,0.7,0.7*2C
$GNGSA,A,3,02,07,08,22,30,,,,,,,,1.0,0.7,0.7*23
$GNVTG,170.1,T,170.1,M,2.6,N,4.8,K,A*35
$GNRMC,022736.00,A,4001.641169,N,11619.844186,E,2.6,170.1,120617,5.8,W,A*37
$GNGGA,022736.00,4001.641169,N,11619.844186,E,1,12,0.7,51.8,M,-8.4,M,,*58
$GPGSV,3,1,09,04,00,000,30,08,35,199,27,09,35,295,20,16,63,025,29*72
$GPGSV,3,2,09,21,17,066,26,23,49,253,23,26,40,057,31,27,68,164,33*71
$GPGSV,3,3,09,31,16,118,31*4F
$GLGSV,2,1,08,74,17,302,10,82,36,042,25,73,59,001,28,80,36,080,23*62
$GLGSV,2,2,08,84,14,177,20,83,54,125,22,71,19,251,12,72,20,305,15*65
$GAGSV,2,1,05,02,42,077,27,07,26,254,25,08,11,203,20,22,42,137,26*64
$GAGSV,2,2,05,30,65,334,28*53
$GNGSA,A,3,08,09,16,21,23,26,27,31,,,,,1.0,0.7,0.7*2A
$GNGSA,A,3,71,72,73,74,80,82,83,84,,,,,1.0,0.7,0.7*2C
$GNGSA,A,3,02,07,08,22,30,,,,,,,,1.0,0.7,0.7*23
$GNVTG,166.4,T,166.4,M,2.6,N,4.8,K,A*35
$GNRMC,022737.00,A,4001.640596,N,11619.844462,E,2.6,166.4,120617,5.8,W,A*3E
$GNGGA,022737.00,4001.640596,N,11619.844462,E,1,12,0.7,51.7,M,-8.4,M,,*5C
$GPGSV,3,1,09,04,00,000,32,08,35,199,26,09,35,295,20,16,63,025,29*71
$GPGSV,3,2,09,21,17,066,28,23,49,253,20,26,40,057,31,27,68,164,29*77
$GPGSV,3,3,09,31,16,118,32*4C
$GLGSV,2,1,08,74,17,302,10,82,36,042,24,73,59,001,25,80,36,080,25*68
$GLGSV,2,2,08,84,14,177,24,83,54,125,25,71,19,251,12,72,20,305,15*66
$GAGSV,2,1,05,02,42,077,30,07,26,254,23,08,11,203,19,22,42,137,27*6F
$GAGSV,2,2,05,30,65,334,23*58
$GNGSA,A,3,08,09,16,21,23,26,27,31,,,,,1.0,0.7,0.7*2A
$GNGSA,A,3,71,72,73,74,80,82,83,84,,,,,1.0,0.7,0.7*2C
$GNGSA,A,3,02,07,08,22,30,,,,,,,,1.0,0.7,0.7*23
$GNVTG,175.0,T,175.0,M,2.5,N,4.7,K,A*39
$GNRMC,022738.00,A,4001.640001,N,11619.844687,E,2.5,175.0,120617,5.8,W,A*36
$GNGGA,022738.00,4001.640001,N,11619.844687,E,1,12,0.7,51.1,M,-8.4,M,,*57
$GPGSV,3,1,09,04,00,000,33,08,35,199,28,09,35,295,20,16,63,025,31*77
$GPGSV,3,2,09,21,17,066,29,23,49,253,20,26,40,057,32,27,68,164,31*7C
$GPGSV,3,3,09,31,16,118,31*4F
$GLGSV,2,1,08,74,17,302,10,82,36,042,28,73,59,001,24,80,36,080,22*62
$GLGSV,2,2,08,84,14,177,22,83,54,125,24,71,19,251,12,72,20,305,15*61
$GAGSV,2,1,05,02,42,077,29,07,26,254,23,08,11,203,19,22,42,137,27*67
$GAGSV,2,2,05,30,65,334,25*5E
$GNGSA,A,3,08,09,16,21,23,26,27,31,,,,,1.0,0.7,0.7*2A
$GNGSA,A,3,71,72,73,74,80,82,83,84,,,,,1.0,0.7,0.7*2C
$GNGSA,A,3,02,07,08,22,30,,,,,,,,1.0,0.7,0.7*23
$GNVTG,175.9,T,175.9,M,2.6,N,4.8,K,A*35
$GNRMC,022739.00,A,4001.639272,N,11619.844812,E,2.6,175.9,120617,5.8,W,A*37
$GNGGA,022739.00,4001.639272,N,11619.844812,E,1,12,0.7,50.8,M,-8.4,M,,*54
$GPGSV,3,1,09,04,00,000,34,08,35,199,25,09,35,295,20,16,63,025,32*7E
$GPGSV,3,2,09,21,17,066,30,23,49,253,21,26,40,057,30,27,68,164,33*75
$GPGSV,3,3,09,31,16,118,32*4C
